$GPGGA,104841.31,5242.3784,N,04126.6761,E,0,,100.000,0.000,M,,M,0,*46,,,,,,,,,,,
$GNGSA,A,1,,,,,,,,,,,,,,,,,,,,,100.000,100.000,100.000*2F
$GPGSA,A,1,,,,,,,,,,,,,,,,,,,,,100.000,100.000,100.000*31
$GLGSA,A,1,,,,,,,,,,,,,,,,,,,,,100.000,100.000,100.000*2D
$BDGSA,A,1,,,,,,,,,,,,,,,,,,,,,100.000,100.000,100.000*20
$QZGSA,A,1,,,,,,,,,,,,,,,,,,,,,100.000,100.000,100.000*2D
$GPGSV,5,1,20,2,22,158,,3,3,41,,6,35,126,,12,47,278,*4C,,,,,,
$GPGSV,5,2,20,14,4,340,,17,38,56,,19,60,68,,22,3,18,*4E,,,,,,
$GPGSV,5,3,20,24,66,233,,25,14,277,,28,10,90,,32,16,321,*4D,,,,,,
$GLGSV,5,4,20,67,13,286,,68,17,337,,75,31,119,,76,82,67,*55,,,,,,
$GLGSV,5,5,20,77,35,310,,85,42,41,,86,64,153,,87,9,194,*6C,,,,,,
$GPRMC,104841.31,V,5242.3784,N,04126.6761,E,0.000,0.000,50420,,E,N*04,,,,,,,,,,,,,
$GPGGA,104842.31,5242.3784,N,04126.6761,E,0,,100.000,0.000,M,,M,0,*45,,,,,,,,,,,
$GNGSA,A,1,,,,,,,,,,,,,,,,,,,,,100.000,100.000,100.000*2F
$GPGSA,A,1,,,,,,,,,,,,,,,,,,,,,100.000,100.000,100.000*31
$GLGSA,A,1,,,,,,,,,,,,,,,,,,,,,100.000,100.000,100.000*2D
$BDGSA,A,1,,,,,,,,,,,,,,,,,,,,,100.000,100.000,100.000*20
$QZGSA,A,1,,,,,,,,,,,,,,,,,,,,,100.000,100.000,100.000*2D
$GPGSV,5,1,20,2,22,158,,3,3,41,,6,35,126,,12,47,278,*4C,,,,,,
$GPGSV,5,2,20,14,4,340,,17,38,56,,19,60,68,,22,3,18,*4E,,,,,,
$GPGSV,5,3,20,24,66,233,,25,14,277,,28,10,90,,32,16,321,*4D,,,,,,
$GLGSV,5,4,20,67,13,286,,68,17,337,,75,31,119,,76,82,67,*55,,,,,,
$GLGSV,5,5,20,77,35,310,,85,42,41,,86,64,153,,87,9,194,*6C,,,,,,
$GPRMC,104842.31,V,5242.3784,N,04126.6761,E,0.000,0.000,50420,,E,N*07,,,,,,,,,,,,,
$GPGGA,104843.31,5242.3784,N,04126.6761,E,0,,100.000,0.000,M,,M,0,*44,,,,,,,,,,,
$GNGSA,A,1,,,,,,,,,,,,,,,,,,,,,100.000,100.000,100.000*2F
$GPGSA,A,1,,,,,,,,,,,,,,,,,,,,,100.000,100.000,100.000*31
$GLGSA,A,1,,,,,,,,,,,,,,,,,,,,,100.000,100.000,100.000*2D
$BDGSA,A,1,,,,,,,,,,,,,,,,,,,,,100.000,100.000,100.000*20
$QZGSA,A,1,,,,,,,,,,,,,,,,,,,,,100.000,100.000,100.000*2D
$GPGSV,5,1,20,2,22,158,,3,3,41,,6,35,126,,12,47,278,*4C,,,,,,
$GPGSV,5,2,20,14,4,340,,17,38,56,,19,60,68,,22,3,18,*4E,,,,,,
$GPGSV,5,3,20,24,66,233,37,25,14,277,,28,10,90,,32,16,321,*49,,,,,,
$GLGSV,5,4,20,67,13,286,,68,17,337,,75,31,119,,76,82,67,*55,,,,,,
$GLGSV,5,5,20,77,35,310,,85,42,41,,86,64,153,,87,9,194,*6C,,,,,,
$GPRMC,104843.31,V,5242.3784,N,04126.6761,E,0.000,0.000,50420,,E,N*06,,,,,,,,,,,,,
$GPGGA,104844.31,5242.3784,N,04126.6761,E,0,1,100.000,0.000,M,,M,0,*72,,,,,,,,,,,
$GNGSA,A,1,24,,,,,,,,,,,,,,,,,,,,100.000,100.000,100.000*29
$GPGSA,A,1,24,,,,,,,,,,,,,,,,,,,,100.000,100.000,100.000*37
$GLGSA,A,1,,,,,,,,,,,,,,,,,,,,,100.000,100.000,100.000*2D
$BDGSA,A,1,,,,,,,,,,,,,,,,,,,,,100.000,100.000,100.000*20
$QZGSA,A,1,,,,,,,,,,,,,,,,,,,,,100.000,100.000,100.000*2D
$GPGSV,5,1,20,2,22,158,,3,3,41,,6,35,126,,12,47,278,*4C,,,,,,
$GPGSV,5,2,20,14,4,340,,17,38,56,,19,60,68,,22,3,18,*4E,,,,,,
$GPGSV,5,3,20,24,66,233,37,25,14,277,,28,10,90,,32,16,321,*49,,,,,,
$GLGSV,5,4,20,67,13,286,35,68,17,337,,75,31,119,,76,82,67,*53,,,,,,
$GLGSV,5,5,20,77,35,310,,85,42,41,,86,64,153,33,87,9,194,*6C,,,,,,
$GPRMC,104844.31,V,5242.3784,N,04126.6761,E,0.000,0.000,50420,,E,N*01,,,,,,,,,,,,,
$GPGGA,104845.31,5242.3784,N,04126.6761,E,0,3,100.000,0.000,M,,M,0,*71,,,,,,,,,,,
$GNGSA,A,1,24,67,86,,,,,,,,,,,,,,,,,,100.000,100.000,100.000*26
$GPGSA,A,1,24,,,,,,,,,,,,,,,,,,,,100.000,100.000,100.000*37
$GLGSA,A,1,67,86,,,,,,,,,,,,,,,,,,,100.000,100.000,100.000*22
$BDGSA,A,1,,,,,,,,,,,,,,,,,,,,,100.000,100.000,100.000*20
$QZGSA,A,1,,,,,,,,,,,,,,,,,,,,,100.000,100.000,100.000*2D
$GPGSV,5,1,20,2,22,158,,3,3,41,,6,35,126,,12,47,278,*4C,,,,,,
$GPGSV,5,2,20,14,4,340,,17,38,56,,19,60,68,,22,3,18,*4E,,,,,,
$GPGSV,5,3,20,24,66,233,36,25,14,277,,28,10,90,,32,16,321,*48,,,,,,
$GLGSV,5,4,20,67,13,286,34,68,17,337,,75,31,119,,76,82,67,*52,,,,,,
$GLGSV,5,5,20,77,35,310,16,85,42,41,,86,64,153,34,87,9,194,24*6A,,,,,,
$GPRMC,104845.31,V,5242.3784,N,04126.6761,E,0.000,0.000,50420,,E,N*00,,,,,,,,,,,,,
$GPGGA,104846.32,5242.3784,N,04126.6761,E,0,3,100.000,0.000,M,,M,0,*71,,,,,,,,,,,
$GNGSA,A,1,24,67,86,,,,,,,,,,,,,,,,,,100.000,100.000,100.000*26
$GPGSA,A,1,24,,,,,,,,,,,,,,,,,,,,100.000,100.000,100.000*37
$GLGSA,A,1,67,86,,,,,,,,,,,,,,,,,,,100.000,100.000,100.000*22
$BDGSA,A,1,,,,,,,,,,,,,,,,,,,,,100.000,100.000,100.000*20
$QZGSA,A,1,,,,,,,,,,,,,,,,,,,,,100.000,100.000,100.000*2D
$GPGSV,7,1,28,2,22,158,,3,3,41,,6,35,126,,12,47,278,33*46,,,,,,
$GPGSV,7,2,28,14,4,340,,17,38,56,,19,60,68,,22,3,18,*44,,,,,,
$GPGSV,7,3,28,24,66,233,33,25,14,277,27,28,10,90,,32,16,321,28*48,,,,,,
$GLGSV,7,4,28,67,13,286,33,68,17,337,,75,31,119,,76,82,67,31*5D,,,,,,
$GLGSV,7,5,28,77,35,310,18,85,42,41,,86,64,153,33,87,9,194,26*6B,,,,,,
$BDGSV,7,6,28,202,5,,,203,5,,,204,5,,,205,1,19,*6F,,,,,,
$BDGSV,7,7,28,206,5,,,207,5,,,208,43,78,,209,5,,*5F,,,,,,
$GPRMC,104846.32,V,5242.3784,N,04126.6761,E,0.000,0.000,50420,,E,N*00,,,,,,,,,,,,,
$GPGGA,104845.04,5242.3729,N,04126.6796,E,1,8,1.941,115.382,M,,M,0,*72,,,,,,,,,,,
$GNGSA,A,3,12,24,25,32,67,77,86,87,,,,,,,,,,,,,2.553,1.941,1.659*28
$GPGSA,A,3,12,24,25,32,,,,,,,,,,,,,,,,,2.553,1.941,1.659*36
$GLGSA,A,3,67,77,86,87,,,,,,,,,,,,,,,,,2.553,1.941,1.659*29
$BDGSA,A,3,,,,,,,,,,,,,,,,,,,,,2.553,1.941,1.659*24
$QZGSA,A,3,,,,,,,,,,,,,,,,,,,,,2.553,1.941,1.659*29
$GPGSV,7,1,28,2,22,158,,3,3,41,,6,35,126,,12,47,278,37*42,,,,,,
$GPGSV,7,2,28,14,4,340,,17,38,56,,19,60,68,,22,3,18,*44,,,,,,
$GPGSV,7,3,28,24,66,233,34,25,14,277,25,28,10,90,,32,16,321,28*4D,,,,,,
$GLGSV,7,4,28,67,13,286,31,68,17,337,,75,31,119,,76,82,67,32*5C,,,,,,
$GLGSV,7,5,28,77,36,310,19,85,42,41,,86,64,153,35,87,9,194,28*61,,,,,,
$BDGSV,7,6,28,202,16,126,,203,7,110,,204,5,,,205,28,164,*5A,,,,,,
$BDGSV,7,7,28,206,5,,,207,21,97,,208,38,55,,209,5,,*64,,,,,,
$GPRMC,104845.04,A,5242.3729,N,04126.6796,E,1.317,0.000,50420,,E,A*15,,,,,,,,,,,,,
$GPGGA,104846.04,5242.3744,N,04126.6757,E,1,8,1.942,115.734,M,,M,0,*7D,,,,,,,,,,,
$GNGSA,A,3,12,24,25,32,67,77,86,87,,,,,,,,,,,,,2.554,1.942,1.659*2C
$GPGSA,A,3,12,24,25,32,,,,,,,,,,,,,,,,,2.554,1.942,1.659*32
$GLGSA,A,3,67,77,86,87,,,,,,,,,,,,,,,,,2.554,1.942,1.659*2D
$BDGSA,A,3,,,,,,,,,,,,,,,,,,,,,2.554,1.942,1.659*20
$QZGSA,A,3,,,,,,,,,,,,,,,,,,,,,2.554,1.942,1.659*2D
$GPGSV,7,1,28,2,22,158,,3,3,41,,6,35,126,,12,47,278,35*40,,,,,,
$GPGSV,7,2,28,14,4,340,,17,38,56,20,19,60,68,10,22,3,18,*47,,,,,,
$GPGSV,7,3,28,24,66,233,35,25,14,277,25,28,10,90,,32,16,321,25*41,,,,,,
$GLGSV,7,4,28,67,13,286,29,68,17,337,,75,31,119,,76,82,67,33*54,,,,,,
$GLGSV,7,5,28,77,36,310,17,85,42,41,,86,64,153,36,87,9,194,26*62,,,,,,
$BDGSV,7,6,28,202,16,126,,203,7,110,,204,5,,,205,28,164,*5A,,,,,,
$BDGSV,7,7,28,206,5,,,207,21,97,,208,38,55,,209,5,,*64,,,,,,
$GPRMC,104846.04,A,5242.3744,N,04126.6757,E,1.245,0.000,50420,,E,A*16,,,,,,,,,,,,,
$GPGGA,104847.04,5242.3768,N,04126.6791,E,1,8,1.942,116.726,M,,M,0,*78,,,,,,,,,,,
$GNGSA,A,3,12,24,25,32,67,77,86,87,,,,,,,,,,,,,2.554,1.942,1.660*26
$GPGSA,A,3,12,24,25,32,,,,,,,,,,,,,,,,,2.554,1.942,1.660*38
$GLGSA,A,3,67,77,86,87,,,,,,,,,,,,,,,,,2.554,1.942,1.660*27
$BDGSA,A,3,,,,,,,,,,,,,,,,,,,,,2.554,1.942,1.660*2A
$QZGSA,A,3,,,,,,,,,,,,,,,,,,,,,2.554,1.942,1.660*27
$GPGSV,7,1,28,2,22,158,24,3,3,41,,6,35,126,28,12,47,278,34*4D,,,,,,
$GPGSV,7,2,28,14,4,340,,17,38,56,18,19,60,68,18,22,3,18,*44,,,,,,
$GPGSV,7,3,28,24,66,233,36,25,14,277,25,28,9,90,,32,16,321,26*79,,,,,,
$GLGSV,7,4,28,67,13,286,29,68,17,337,,75,31,119,25,76,82,68,30*5F,,,,,,
$GLGSV,7,5,28,77,36,310,16,85,42,41,,86,64,153,37,87,9,194,24*60,,,,,,
$BDGSV,7,6,28,202,16,126,,203,7,110,,204,5,,,205,28,164,*5A,,,,,,
$BDGSV,7,7,28,206,5,,,207,21,97,,208,38,55,,209,5,,*64,,,,,,
$GPRMC,104847.04,A,5242.3768,N,04126.6791,E,1.085,0.000,50420,,E,A*1D,,,,,,,,,,,,,
$GPGGA,104848.04,5242.3798,N,04126.6649,E,1,12,0.901,130.888,M,,M,0,*4E,,,,,,,,,,,
$GNGSA,A,3,2,6,12,17,19,24,25,32,67,77,86,87,,,,,,,,,1.534,0.901,1.241*28
$GPGSA,A,3,2,6,12,17,19,24,25,32,,,,,,,,,,,,,1.534,0.901,1.241*36
$GLGSA,A,3,67,77,86,87,,,,,,,,,,,,,,,,,1.534,0.901,1.241*23
$BDGSA,A,3,,,,,,,,,,,,,,,,,,,,,1.534,0.901,1.241*2E
$QZGSA,A,3,,,,,,,,,,,,,,,,,,,,,1.534,0.901,1.241*23
$GPGSV,7,1,28,2,22,158,21,3,3,41,,6,35,126,28,12,47,278,35*49,,,,,,
$GPGSV,7,2,28,14,4,340,,17,38,56,20,19,60,68,25,22,3,18,*41,,,,,,
$GPGSV,7,3,28,24,66,233,37,25,14,277,23,28,9,90,,32,16,321,31*78,,,,,,
$GLGSV,7,4,28,67,13,286,30,68,17,337,,75,31,119,24,76,82,68,30*56,,,,,,
$GLGSV,7,5,28,77,36,310,16,85,42,41,,86,64,153,37,87,9,194,20*64,,,,,,
$BDGSV,7,6,28,202,16,126,,203,7,110,,204,5,,,205,28,164,*5A,,,,,,
$BDGSV,7,7,28,206,5,,,207,21,97,,208,38,55,,209,5,,*64,,,,,,
$GPRMC,104848.04,A,5242.3798,N,04126.6649,E,0.282,0.000,50420,,E,A*1D,,,,,,,,,,,,,
$GPGGA,104849.31,5242.3798,N,04126.6616,E,1,13,0.843,137.120,M,,M,0,*49,,,,,,,,,,,
$GNGSA,A,3,2,6,12,17,19,24,25,32,67,75,77,86,87,,,,,,,,1.485,0.843,1.222*23
$GPGSA,A,3,2,6,12,17,19,24,25,32,,,,,,,,,,,,,1.485,0.843,1.222*3F
$GLGSA,A,3,67,75,77,86,87,,,,,,,,,,,,,,,,1.485,0.843,1.222*28
$BDGSA,A,3,,,,,,,,,,,,,,,,,,,,,1.485,0.843,1.222*27
$QZGSA,A,3,,,,,,,,,,,,,,,,,,,,,1.485,0.843,1.222*2A
$GPGSV,7,1,28,2,22,158,23,3,3,41,,6,35,126,22,12,47,278,36*42,,,,,,
$GPGSV,7,2,28,14,4,340,,17,38,56,24,19,60,68,28,22,3,18,*48,,,,,,
$GPGSV,7,3,28,24,66,233,36,25,14,277,28,28,9,90,,32,16,321,31*72,,,,,,
$GLGSV,7,4,28,67,13,286,28,68,17,337,,75,31,119,24,76,82,68,32*5D,,,,,,
$GLGSV,7,5,28,77,36,310,15,85,42,41,,86,64,153,36,87,9,194,23*65,,,,,,
$BDGSV,7,6,28,202,16,126,,203,7,110,,204,5,,,205,28,164,*5A,,,,,,
$BDGSV,7,7,28,206,5,,,207,21,97,,208,38,55,,209,5,,*64,,,,,,
$GPRMC,104849.31,A,5242.3798,N,04126.6616,E,1.256,0.000,50420,,E,A*18,,,,,,,,,,,,,
$GPGGA,104850.31,5242.3779,N,04126.6614,E,1,13,0.843,135.713,M,,M,0,*48,,,,,,,,,,,
$GNGSA,A,3,2,6,12,17,19,24,25,32,67,75,77,86,87,,,,,,,,1.485,0.843,1.222*23
$GPGSA,A,3,2,6,12,17,19,24,25,32,,,,,,,,,,,,,1.485,0.843,1.222*3F
$GLGSA,A,3,67,75,77,86,87,,,,,,,,,,,,,,,,1.485,0.843,1.222*28
$BDGSA,A,3,,,,,,,,,,,,,,,,,,,,,1.485,0.843,1.222*27
$QZGSA,A,3,,,,,,,,,,,,,,,,,,,,,1.485,0.843,1.222*2A
$GPGSV,7,1,28,2,22,158,21,3,3,41,,6,35,126,25,12,47,278,33*42,,,,,,
$GPGSV,7,2,28,14,4,340,,17,38,56,22,19,60,68,30,22,3,18,*47,,,,,,
$GPGSV,7,3,28,24,66,233,38,25,14,277,27,28,9,90,,32,16,321,27*74,,,,,,
$GLGSV,7,4,28,67,13,286,28,68,17,337,,75,31,119,23,76,82,68,33*5B,,,,,,
$GLGSV,7,5,28,77,36,310,15,85,42,41,,86,64,153,35,87,9,194,29*6C,,,,,,
$BDGSV,7,6,28,202,16,126,,203,7,110,,204,5,,,205,28,164,*5A,,,,,,
$BDGSV,7,7,28,206,5,,,207,21,97,,208,38,55,,209,5,,*64,,,,,,
$GPRMC,104850.31,A,5242.3779,N,04126.6614,E,0.423,0.000,50420,,E,A*18,,,,,,,,,,,,,
$GPGGA,104851.00,5242.3775,N,04126.6613,E,1,14,0.762,133.938,M,,M,0,*4A,,,,,,,,,,,
$GNGSA,A,3,2,6,12,17,19,24,25,32,67,75,77,85,86,87,,,,,,,1.440,0.762,1.222*2B
$GPGSA,A,3,2,6,12,17,19,24,25,32,,,,,,,,,,,,,1.440,0.762,1.222*3A
$GLGSA,A,3,67,75,77,85,86,87,,,,,,,,,,,,,,,1.440,0.762,1.222*20
$BDGSA,A,3,,,,,,,,,,,,,,,,,,,,,1.440,0.762,1.222*22
$QZGSA,A,3,,,,,,,,,,,,,,,,,,,,,1.440,0.762,1.222*2F
$GPGSV,9,1,34,2,22,158,21,3,3,41,,6,35,126,25,12,47,278,33*41,,,,,,
$GPGSV,9,2,34,14,4,340,,17,38,56,23,19,60,68,28,22,3,18,*4C,,,,,,
$GPGSV,9,3,34,24,66,233,35,25,14,277,27,28,9,90,,32,16,321,27*7A,,,,,,
$GLGSV,9,4,34,67,13,286,27,68,17,337,,75,31,119,26,76,82,68,33*52,,,,,,
$GLGSV,9,5,34,77,36,310,15,85,42,41,17,86,64,153,32,87,9,194,26*61,,,,,,
$BDGSV,9,6,34,201,5,,,202,16,126,,203,7,110,,204,5,,*51,,,,,,
$BDGSV,9,7,34,205,28,164,,206,5,,,207,21,97,,208,38,55,*67,,,,,,
$BDGSV,9,8,34,209,5,,,210,15,97,,211,56,177,,212,28,48,*6E,,,,,,
$BDGSV,9,9,34,213,32,57,,214,5,,*5E,,,,,,,,,,,,,,
$GPRMC,104851.00,A,5242.3775,N,04126.6613,E,0.392,0.000,50420,,E,A*1D,,,,,,,,,,,,,
$GPGGA,104852.00,5242.3737,N,04126.6612,E,1,13,0.784,125.529,M,,M,0,*4A,,,,,,,,,,,
$GNGSA,A,3,2,6,12,17,19,24,25,32,67,75,77,85,87,,,,,,,,1.558,0.784,1.347*27
$GPGSA,A,3,2,6,12,17,19,24,25,32,,,,,,,,,,,,,1.558,0.784,1.347*38
$GLGSA,A,3,67,75,77,85,87,,,,,,,,,,,,,,,,1.558,0.784,1.347*2C
$BDGSA,A,3,,,,,,,,,,,,,,,,,,,,,1.558,0.784,1.347*20
$QZGSA,A,3,,,,,,,,,,,,,,,,,,,,,1.558,0.784,1.347*2D
$GPGSV,9,1,34,2,22,158,25,3,3,41,,6,35,126,23,12,47,278,31*41,,,,,,
$GPGSV,9,2,34,14,4,340,,17,38,56,25,19,60,68,30,22,3,18,*43,,,,,,
$GPGSV,9,3,34,24,66,233,37,25,14,277,26,28,9,90,,32,16,321,26*78,,,,,,
$GLGSV,9,4,34,67,13,286,23,68,17,337,,75,31,119,21,76,82,68,31*53,,,,,,
$GLGSV,9,5,34,77,36,310,16,85,42,41,21,86,64,153,29,87,9,194,25*6E,,,,,,
$BDGSV,9,6,34,201,5,,,202,16,126,,203,7,110,,204,5,,*51,,,,,,
$BDGSV,9,7,34,205,28,164,,206,5,,,207,21,97,,208,38,55,*67,,,,,,
$BDGSV,9,8,34,209,5,,,210,15,97,,211,56,177,,212,28,48,*6E,,,,,,
$BDGSV,9,9,34,213,32,57,,214,5,,*5E,,,,,,,,,,,,,,
$GPRMC,104852.00,A,5242.3737,N,04126.6612,E,1.292,0.000,50420,,E,A*19,,,,,,,,,,,,,
$GPGGA,104853.00,5242.3740,N,04126.6601,E,1,13,0.783,126.211,M,,M,0,*41,,,,,,,,,,,
$GNGSA,A,3,2,6,12,17,19,24,25,32,67,75,77,85,87,,,,,,,,1.558,0.783,1.347*20
$GPGSA,A,3,2,6,12,17,19,24,25,32,,,,,,,,,,,,,1.558,0.783,1.347*3F
$GLGSA,A,3,67,75,77,85,87,,,,,,,,,,,,,,,,1.558,0.783,1.347*2B
$BDGSA,A,3,,,,,,,,,,,,,,,,,,,,,1.558,0.783,1.347*27
$QZGSA,A,3,,,,,,,,,,,,,,,,,,,,,1.558,0.783,1.347*2A
$GPGSV,9,1,34,2,22,158,28,3,3,41,,6,35,126,21,12,47,278,33*4C,,,,,,
$GPGSV,9,2,34,14,4,340,,17,38,56,28,19,60,68,30,22,3,18,*4E,,,,,,
$GPGSV,9,3,34,24,66,233,38,25,14,277,29,28,9,90,,32,16,321,28*76,,,,,,
$GLGSV,9,4,34,67,13,286,22,68,17,337,,75,31,119,26,76,82,68,30*54,,,,,,
$GLGSV,9,5,34,77,36,310,17,85,42,41,25,86,64,153,36,87,9,194,27*67,,,,,,
$BDGSV,9,6,34,201,5,,,202,16,126,,203,7,110,,204,5,,*51,,,,,,
$BDGSV,9,7,34,205,28,164,,206,5,,,207,21,97,,208,38,55,*67,,,,,,
$BDGSV,9,8,34,209,5,,,210,15,97,,211,56,177,,212,28,48,*6E,,,,,,
$BDGSV,9,9,34,213,32,57,,214,5,,*5E,,,,,,,,,,,,,,
$GPRMC,104853.00,A,5242.3740,N,04126.6601,E,0.000,0.000,50420,,E,A*12,,,,,,,,,,,,,
$GPGGA,104854.00,5242.3744,N,04126.6596,E,1,14,0.708,128.103,M,,M,0,*45,,,,,,,,,,,
$GNGSA,A,3,2,6,12,17,19,24,25,28,32,67,75,77,85,87,,,,,,,1.339,0.708,1.137*2D
$GPGSA,A,3,2,6,12,17,19,24,25,28,32,,,,,,,,,,,,1.339,0.708,1.137*32
$GLGSA,A,3,67,75,77,85,87,,,,,,,,,,,,,,,,1.339,0.708,1.137*2C
$BDGSA,A,3,,,,,,,,,,,,,,,,,,,,,1.339,0.708,1.137*20
$QZGSA,A,3,,,,,,,,,,,,,,,,,,,,,1.339,0.708,1.137*2D
$GPGSV,9,1,34,2,22,158,31,3,3,41,,6,35,126,24,12,47,278,37*45,,,,,,
$GPGSV,9,2,34,14,4,340,,17,38,56,27,19,60,68,32,22,3,18,*43,,,,,,
$GPGSV,9,3,34,24,66,233,38,25,14,277,34,28,9,90,22,32,16,321,30*73,,,,,,
$GLGSV,9,4,34,67,13,286,26,68,17,337,24,75,31,119,26,76,82,68,31*57,,,,,,
$GLGSV,9,5,34,77,36,310,17,85,42,41,28,86,64,153,36,87,9,194,25*68,,,,,,
$BDGSV,9,6,34,201,5,,,202,16,126,,203,7,110,,204,5,,*51,,,,,,
$BDGSV,9,7,34,205,28,164,,206,5,,,207,21,97,,208,38,55,*67,,,,,,
$BDGSV,9,8,34,209,5,,,210,15,97,,211,56,177,,212,28,48,*6E,,,,,,
$BDGSV,9,9,34,213,32,57,,214,5,,*5E,,,,,,,,,,,,,,
$GPRMC,104854.00,A,5242.3744,N,04126.6596,E,0.183,0.000,50420,,E,A*16,,,,,,,,,,,,,
$GPGGA,104855.00,5242.3744,N,04126.6596,E,1,14,0.708,128.103,M,,M,0,*44,,,,,,,,,,,
$GNGSA,A,3,2,6,12,17,19,24,25,28,32,67,75,77,85,87,,,,,,,1.339,0.708,1.137*2D
$GPGSA,A,3,2,6,12,17,19,24,25,28,32,,,,,,,,,,,,1.339,0.708,1.137*32
$GLGSA,A,3,67,75,77,85,87,,,,,,,,,,,,,,,,1.339,0.708,1.137*2C
$BDGSA,A,3,,,,,,,,,,,,,,,,,,,,,1.339,0.708,1.137*20
$QZGSA,A,3,,,,,,,,,,,,,,,,,,,,,1.339,0.708,1.137*2D
$GPGSV,9,1,34,2,22,158,33,3,3,41,,6,35,126,29,12,47,278,34*49,,,,,,
$GPGSV,9,2,34,14,4,340,12,17,38,56,34,19,60,68,34,22,3,18,18*4D,,,,,,
$GPGSV,9,3,34,24,66,233,34,25,14,277,29,28,9,90,22,32,16,321,27*75,,,,,,
$GLGSV,9,4,34,67,13,286,25,68,17,337,24,75,31,119,26,76,82,68,34*51,,,,,,
$GLGSV,9,5,34,77,36,310,17,85,42,41,30,86,64,153,35,87,9,194,27*60,,,,,,
$BDGSV,9,6,34,201,5,,,202,16,126,,203,7,110,,204,5,,*51,,,,,,
$BDGSV,9,7,34,205,28,164,,206,5,,,207,21,97,,208,38,55,*67,,,,,,
$BDGSV,9,8,34,209,5,,,210,15,97,,211,56,177,,212,28,48,*6E,,,,,,
$BDGSV,9,9,34,213,32,57,,214,5,,*5E,,,,,,,,,,,,,,
$GPRMC,104855.00,A,5242.3744,N,04126.6596,E,0.000,0.000,50420,,E,A*1D,,,,,,,,,,,,,
$GPGGA,104856.00,5242.3744,N,04126.6596,E,1,15,0.666,128.103,M,,M,0,*4F,,,,,,,,,,,
$GNGSA,A,3,2,6,12,17,19,24,25,28,32,67,68,75,77,85,87,,,,,,1.283,0.666,1.097*21
$GPGSA,A,3,2,6,12,17,19,24,25,28,32,,,,,,,,,,,,1.283,0.666,1.097*30
$GLGSA,A,3,67,68,75,77,85,87,,,,,,,,,,,,,,,1.283,0.666,1.097*20
$BDGSA,A,3,,,,,,,,,,,,,,,,,,,,,1.283,0.666,1.097*22
$QZGSA,A,3,,,,,,,,,,,,,,,,,,,,,1.283,0.666,1.097*2F
$GPGSV,9,1,32,2,22,158,36,3,3,41,,6,35,126,30,12,47,278,23*44,,,,,,
$GPGSV,9,2,32,17,38,56,35,19,60,68,33,24,66,233,29,25,14,277,24*72,,,,,,
$GPGSV,9,3,32,28,9,90,22,32,16,321,26*7A,,,,,,,,,,,,,,
$GLGSV,9,4,32,67,13,286,23,68,17,337,19,75,31,119,28,76,82,68,37*52,,,,,,
$GLGSV,9,5,32,77,36,310,18,85,42,41,35,86,64,153,35,87,9,194,24*6F,,,,,,
$BDGSV,9,6,32,201,5,,,202,16,126,,203,7,110,,204,5,,*57,,,,,,
$BDGSV,9,7,32,205,28,164,,206,5,,,207,21,97,,208,38,55,*61,,,,,,
$BDGSV,9,8,32,209,5,,,210,15,97,,211,56,177,,212,28,48,*68,,,,,,
$BDGSV,9,9,32,213,32,57,,214,5,,*58,,,,,,,,,,,,,,
$GPRMC,104856.00,A,5242.3744,N,04126.6596,E,0.000,0.000,50420,,E,A*1E,,,,,,,,,,,,,
$GPGGA,104857.00,5242.3744,N,04126.6596,E,1,15,0.666,128.103,M,,M,0,*4E,,,,,,,,,,,
$GNGSA,A,3,2,6,12,17,19,24,25,28,32,67,68,75,77,85,87,,,,,,1.283,0.666,1.097*21
$GPGSA,A,3,2,6,12,17,19,24,25,28,32,,,,,,,,,,,,1.283,0.666,1.097*30
$GLGSA,A,3,67,68,75,77,85,87,,,,,,,,,,,,,,,1.283,0.666,1.097*20
$BDGSA,A,3,,,,,,,,,,,,,,,,,,,,,1.283,0.666,1.097*22
$QZGSA,A,3,,,,,,,,,,,,,,,,,,,,,1.283,0.666,1.097*2F
$GPGSV,9,1,32,2,22,158,31,3,3,41,,6,35,126,29,12,47,278,30*49,,,,,,
$GPGSV,9,2,32,17,38,56,33,19,60,68,29,24,66,233,31,25,14,277,24*76,,,,,,
$GPGSV,9,3,32,28,9,90,20,32,16,321,24*7A,,,,,,,,,,,,,,
$GLGSV,9,4,32,67,13,286,25,68,17,337,21,75,31,119,26,76,82,68,36*50,,,,,,
$GLGSV,9,5,32,77,36,310,18,85,42,41,36,86,64,153,37,87,9,194,25*6F,,,,,,
$BDGSV,9,6,32,201,5,,,202,16,126,,203,7,110,,204,5,,*57,,,,,,
$BDGSV,9,7,32,205,28,164,,206,5,,,207,21,97,,208,38,55,*61,,,,,,
$BDGSV,9,8,32,209,5,,,210,15,97,,211,56,177,,212,28,48,*68,,,,,,
$BDGSV,9,9,32,213,32,57,,214,5,,*58,,,,,,,,,,,,,,
$GPRMC,104857.00,A,5242.3744,N,04126.6596,E,0.000,0.000,50420,,E,A*1F,,,,,,,,,,,,,
$GPGGA,104858.00,5242.3742,N,04126.6609,E,1,15,0.666,127.310,M,,M,0,*4D,,,,,,,,,,,
$GNGSA,A,3,2,6,12,17,19,24,25,28,32,67,68,75,77,85,87,,,,,,1.283,0.666,1.097*21
$GPGSA,A,3,2,6,12,17,19,24,25,28,32,,,,,,,,,,,,1.283,0.666,1.097*30
$GLGSA,A,3,67,68,75,77,85,87,,,,,,,,,,,,,,,1.283,0.666,1.097*20
$BDGSA,A,3,,,,,,,,,,,,,,,,,,,,,1.283,0.666,1.097*22
$QZGSA,A,3,,,,,,,,,,,,,,,,,,,,,1.283,0.666,1.097*2F
$GPGSV,9,1,32,2,22,158,35,3,3,41,,6,35,126,29,12,47,278,31*4C,,,,,,
$GPGSV,9,2,32,17,38,56,26,19,60,68,27,24,66,233,32,25,14,277,24*7F,,,,,,
$GPGSV,9,3,32,28,9,90,20,32,16,321,21*7F,,,,,,,,,,,,,,
$GLGSV,9,4,32,67,13,286,26,68,17,337,24,75,31,119,26,76,82,68,37*57,,,,,,
$GLGSV,9,5,32,77,36,310,17,85,42,41,34,86,64,153,37,87,9,194,25*62,,,,,,
$BDGSV,9,6,32,201,5,,,202,16,126,,203,7,110,,204,5,,*57,,,,,,
$BDGSV,9,7,32,205,28,164,,206,5,,,207,21,97,,208,38,55,*61,,,,,,
$BDGSV,9,8,32,209,5,,,210,15,97,,211,56,177,,212,28,48,*68,,,,,,
$BDGSV,9,9,32,213,32,57,,214,5,,*58,,,,,,,,,,,,,,
$GPRMC,104858.00,A,5242.3742,N,04126.6609,E,1.773,0.000,50420,,E,A*11,,,,,,,,,,,,,
$GPGGA,104859.00,5242.3735,N,04126.6620,E,1,15,0.666,126.809,M,,M,0,*45,,,,,,,,,,,
$GNGSA,A,3,2,6,12,17,19,24,25,28,32,67,68,75,77,85,87,,,,,,1.284,0.666,1.097*26
$GPGSA,A,3,2,6,12,17,19,24,25,28,32,,,,,,,,,,,,1.284,0.666,1.097*37
$GLGSA,A,3,67,68,75,77,85,87,,,,,,,,,,,,,,,1.284,0.666,1.097*27
$BDGSA,A,3,,,,,,,,,,,,,,,,,,,,,1.284,0.666,1.097*25
$QZGSA,A,3,,,,,,,,,,,,,,,,,,,,,1.284,0.666,1.097*28
$GPGSV,9,1,32,2,22,158,29,3,3,41,,6,35,126,33,12,47,278,32*49,,,,,,
$GPGSV,9,2,32,17,38,56,28,19,60,68,30,24,66,233,31,25,14,277,23*73,,,,,,
$GPGSV,9,3,32,28,9,90,22,32,16,321,26*7A,,,,,,,,,,,,,,
$GLGSV,9,4,32,67,13,286,25,68,17,337,25,75,31,119,26,76,82,68,35*57,,,,,,
$GLGSV,9,5,32,77,36,310,18,85,42,41,28,86,64,153,39,87,9,194,24*6F,,,,,,
$BDGSV,9,6,32,201,5,,,202,16,126,,203,7,110,,204,5,,*57,,,,,,
$BDGSV,9,7,32,205,28,164,,206,5,,,207,21,97,,208,38,55,*61,,,,,,
$BDGSV,9,8,32,209,5,,,210,15,97,,211,56,177,,212,28,48,*68,,,,,,
$BDGSV,9,9,32,213,32,57,,214,5,,*58,,,,,,,,,,,,,,
$GPRMC,104859.00,A,5242.3735,N,04126.6620,E,1.958,138.340,50420,,E,A*11,,,,,,,,,,,,,
$GPGGA,104900.00,5242.3729,N,04126.6631,E,1,15,0.666,126.229,M,,M,0,*4D,,,,,,,,,,,
$GNGSA,A,3,2,6,12,17,19,24,25,28,32,67,68,75,77,85,87,,,,,,1.284,0.666,1.097*26
$GPGSA,A,3,2,6,12,17,19,24,25,28,32,,,,,,,,,,,,1.284,0.666,1.097*37
$GLGSA,A,3,67,68,75,77,85,87,,,,,,,,,,,,,,,1.284,0.666,1.097*27
$BDGSA,A,3,,,,,,,,,,,,,,,,,,,,,1.284,0.666,1.097*25
$QZGSA,A,3,,,,,,,,,,,,,,,,,,,,,1.284,0.666,1.097*28
$GPGSV,9,1,32,2,22,158,30,3,3,41,,6,35,126,33,12,47,278,31*42,,,,,,
$GPGSV,9,2,32,17,38,56,31,19,60,68,28,24,66,233,33,25,14,277,23*70,,,,,,
$GPGSV,9,3,32,28,9,90,20,32,16,321,27*79,,,,,,,,,,,,,,
$GLGSV,9,4,32,67,13,286,29,68,17,337,26,75,31,119,27,76,82,68,34*58,,,,,,
$GLGSV,9,5,32,77,36,310,17,85,42,41,21,86,64,153,38,87,9,194,25*69,,,,,,
$BDGSV,9,6,32,201,5,,,202,16,126,,203,7,110,,204,5,,*57,,,,,,
$BDGSV,9,7,32,205,28,164,,206,5,,,207,21,97,,208,38,55,*61,,,,,,
$BDGSV,9,8,32,209,5,,,210,15,97,,211,56,177,,212,28,48,*68,,,,,,
$BDGSV,9,9,32,213,32,57,,214,5,,*58,,,,,,,,,,,,,,
$GPRMC,104900.00,A,5242.3729,N,04126.6631,E,1.763,138.340,50420,,E,A*17,,,,,,,,,,,,,
$GPGGA,104901.00,5242.3722,N,04126.6640,E,1,15,0.666,125.992,M,,M,0,*49,,,,,,,,,,,
$GNGSA,A,3,2,6,12,17,19,24,25,28,32,67,68,75,77,85,87,,,,,,1.284,0.666,1.097*26
$GPGSA,A,3,2,6,12,17,19,24,25,28,32,,,,,,,,,,,,1.284,0.666,1.097*37
$GLGSA,A,3,67,68,75,77,85,87,,,,,,,,,,,,,,,1.284,0.666,1.097*27
$BDGSA,A,3,,,,,,,,,,,,,,,,,,,,,1.284,0.666,1.097*25
$QZGSA,A,3,,,,,,,,,,,,,,,,,,,,,1.284,0.666,1.097*28
$GPGSV,9,1,31,2,22,158,33,6,35,126,33,12,47,278,31,17,38,56,28*43,,,,,,
$GPGSV,9,2,31,19,60,68,29,24,66,233,30,25,14,277,24,28,9,90,20*42,,,,,,
$GPGSV,9,3,31,32,16,321,27*42,,,,,,,,,,,,,,,,,,
$GLGSV,9,4,31,67,13,286,28,68,17,337,25,75,31,119,25,76,82,68,37*58,,,,,,
$GLGSV,9,5,31,77,36,310,17,85,42,41,28,86,64,153,38,87,9,194,25*63,,,,,,
$BDGSV,9,6,31,201,5,,,202,16,126,,203,7,110,,204,5,,*54,,,,,,
$BDGSV,9,7,31,205,28,164,,206,5,,,207,21,97,,208,38,55,*62,,,,,,
$BDGSV,9,8,31,209,5,,,210,15,97,,211,56,177,,212,28,48,*6B,,,,,,
$BDGSV,9,9,31,213,32,57,,214,5,,*5B,,,,,,,,,,,,,,
$GPRMC,104901.00,A,5242.3722,N,04126.6640,E,1.921,144.174,50420,,E,A*1D,,,,,,,,,,,,,
$GPGGA,104902.00,5242.3715,N,04126.6649,E,1,15,0.666,125.435,M,,M,0,*47,,,,,,,,,,,
$GNGSA,A,3,2,6,12,17,19,24,25,28,32,67,68,75,77,85,87,,,,,,1.284,0.666,1.097*26
$GPGSA,A,3,2,6,12,17,19,24,25,28,32,,,,,,,,,,,,1.284,0.666,1.097*37
$GLGSA,A,3,67,68,75,77,85,87,,,,,,,,,,,,,,,1.284,0.666,1.097*27
$BDGSA,A,3,,,,,,,,,,,,,,,,,,,,,1.284,0.666,1.097*25
$QZGSA,A,3,,,,,,,,,,,,,,,,,,,,,1.284,0.666,1.097*28
$GPGSV,9,1,31,2,22,158,38,6,35,126,30,12,47,278,31,17,38,56,28*4B,,,,,,
$GPGSV,9,2,31,19,60,68,31,24,66,233,29,25,14,278,22,28,9,90,23*49,,,,,,
$GPGSV,9,3,31,32,16,321,27*42,,,,,,,,,,,,,,,,,,
$GLGSV,9,4,31,67,13,286,22,68,17,337,23,75,31,119,24,76,82,68,37*55,,,,,,
$GLGSV,9,5,31,77,36,310,17,85,42,41,26,86,64,153,37,87,9,194,22*65,,,,,,
$BDGSV,9,6,31,201,5,,,202,16,126,,203,7,110,,204,5,,*54,,,,,,
$BDGSV,9,7,31,205,28,164,,206,5,,,207,21,97,,208,38,55,*62,,,,,,
$BDGSV,9,8,31,209,5,,,210,15,97,,211,56,177,,212,28,48,*6B,,,,,,
$BDGSV,9,9,31,213,32,57,,214,5,,*5B,,,,,,,,,,,,,,
$GPRMC,104902.00,A,5242.3715,N,04126.6649,E,1.803,142.370,50420,,E,A*12,,,,,,,,,,,,,
$GPGGA,104903.00,5242.3708,N,04126.6657,E,1,15,0.666,125.000,M,,M,0,*47,,,,,,,,,,,
$GNGSA,A,3,2,6,12,17,19,24,25,28,32,67,68,75,77,85,87,,,,,,1.284,0.666,1.097*26
$GPGSA,A,3,2,6,12,17,19,24,25,28,32,,,,,,,,,,,,1.284,0.666,1.097*37
$GLGSA,A,3,67,68,75,77,85,87,,,,,,,,,,,,,,,1.284,0.666,1.097*27
$BDGSA,A,3,,,,,,,,,,,,,,,,,,,,,1.284,0.666,1.097*25
$QZGSA,A,3,,,,,,,,,,,,,,,,,,,,,1.284,0.666,1.097*28
$GPGSV,9,1,31,2,22,158,38,6,35,126,35,12,47,278,32,17,38,56,30*44,,,,,,
$GPGSV,9,2,31,19,60,68,32,24,66,233,30,25,14,278,23,28,9,90,23*43,,,,,,
$GPGSV,9,3,31,32,16,321,29*4C,,,,,,,,,,,,,,,,,,
$GLGSV,9,4,31,67,13,286,26,68,17,337,22,75,31,119,27,76,82,68,35*51,,,,,,
$GLGSV,9,5,31,77,36,310,17,85,42,41,29,86,64,153,36,87,9,194,21*68,,,,,,
$BDGSV,9,6,31,201,5,,,202,16,126,,203,7,110,,204,5,,*54,,,,,,
$BDGSV,9,7,31,205,28,164,,206,5,,,207,21,97,,208,38,55,*62,,,,,,
$BDGSV,9,8,31,209,5,,,210,15,97,,211,56,177,,212,28,48,*6B,,,,,,
$BDGSV,9,9,31,213,32,57,,214,5,,*5B,,,,,,,,,,,,,,
$GPRMC,104903.00,A,5242.3708,N,04126.6657,E,1.807,146.754,50420,,E,A*12,,,,,,,,,,,,,
$GPGGA,104904.00,5242.3703,N,04126.6667,E,1,15,0.666,124.811,M,,M,0,*41,,,,,,,,,,,
$GNGSA,A,3,2,6,12,17,19,24,25,28,32,67,68,75,77,85,87,,,,,,1.284,0.666,1.097*26
$GPGSA,A,3,2,6,12,17,19,24,25,28,32,,,,,,,,,,,,1.284,0.666,1.097*37
$GLGSA,A,3,67,68,75,77,85,87,,,,,,,,,,,,,,,1.284,0.666,1.097*27
$BDGSA,A,3,,,,,,,,,,,,,,,,,,,,,1.284,0.666,1.097*25
$QZGSA,A,3,,,,,,,,,,,,,,,,,,,,,1.284,0.666,1.097*28
$GPGSV,9,1,31,2,22,158,34,6,35,126,36,12,47,278,32,17,38,56,30*4B,,,,,,
$GPGSV,9,2,31,19,60,68,32,24,66,233,33,25,14,278,24,28,9,90,18*4F,,,,,,
$GPGSV,9,3,31,32,16,321,26*43,,,,,,,,,,,,,,,,,,
$GLGSV,9,4,31,67,13,286,27,68,17,337,23,75,31,119,31,76,82,68,34*57,,,,,,
$GLGSV,9,5,31,77,36,310,17,85,42,41,35,86,64,153,34,87,9,194,22*64,,,,,,
$BDGSV,9,6,31,201,5,,,202,16,126,,203,7,110,,204,5,,*54,,,,,,
$BDGSV,9,7,31,205,28,164,31,206,5,,,207,21,97,,208,38,55,*60,,,,,,
$BDGSV,9,8,31,209,5,,,210,15,97,,211,56,177,,212,28,48,*6B,,,,,,
$BDGSV,9,9,31,213,32,57,,214,5,,*5B,,,,,,,,,,,,,,
$GPRMC,104904.00,A,5242.3703,N,04126.6667,E,1.766,133.056,50420,,E,A*12,,,,,,,,,,,,,
$GPGGA,104905.00,5242.3698,N,04126.6677,E,1,15,0.666,124.582,M,,M,0,*45,,,,,,,,,,,
$GNGSA,A,3,2,6,12,17,19,24,25,28,32,67,68,75,77,85,87,,,,,,1.284,0.666,1.097*26
$GPGSA,A,3,2,6,12,17,19,24,25,28,32,,,,,,,,,,,,1.284,0.666,1.097*37
$GLGSA,A,3,67,68,75,77,85,87,,,,,,,,,,,,,,,1.284,0.666,1.097*27
$BDGSA,A,3,,,,,,,,,,,,,,,,,,,,,1.284,0.666,1.097*25
$QZGSA,A,3,,,,,,,,,,,,,,,,,,,,,1.284,0.666,1.097*28
$GPGSV,9,1,31,2,22,158,38,6,35,126,34,12,47,278,33,17,38,56,28*4D,,,,,,
$GPGSV,9,2,31,19,60,68,29,24,66,233,34,25,14,278,24,28,9,90,21*48,,,,,,
$GPGSV,9,3,31,32,16,321,26*43,,,,,,,,,,,,,,,,,,
$GLGSV,9,4,31,67,13,286,27,68,17,337,23,75,31,119,36,76,82,69,33*56,,,,,,
$GLGSV,9,5,31,77,36,310,22,85,42,41,32,86,64,153,34,87,9,194,22*65,,,,,,
$BDGSV,9,6,31,201,5,,,202,16,126,,203,7,110,,204,5,,*54,,,,,,
$BDGSV,9,7,31,205,28,164,30,206,5,,,207,21,97,,208,38,55,*61,,,,,,
$BDGSV,9,8,31,209,5,,,210,15,97,,211,56,177,,212,28,48,*6B,,,,,,
$BDGSV,9,9,31,213,32,57,,214,5,,*5B,,,,,,,,,,,,,,
$GPRMC,104905.00,A,5242.3698,N,04126.6677,E,1.404,138.258,50420,,E,A*11,,,,,,,,,,,,,
$GPGGA,104906.00,5242.3694,N,04126.6684,E,1,15,0.666,124.910,M,,M,0,*41,,,,,,,,,,,
$GNGSA,A,3,2,6,12,17,19,24,25,28,32,67,68,75,77,85,87,,,,,,1.284,0.666,1.097*26
$GPGSA,A,3,2,6,12,17,19,24,25,28,32,,,,,,,,,,,,1.284,0.666,1.097*37
$GLGSA,A,3,67,68,75,77,85,87,,,,,,,,,,,,,,,1.284,0.666,1.097*27
$BDGSA,A,3,,,,,,,,,,,,,,,,,,,,,1.284,0.666,1.097*25
$QZGSA,A,3,,,,,,,,,,,,,,,,,,,,,1.284,0.666,1.097*28
$GPGSV,9,1,31,2,22,158,38,6,35,126,35,12,47,278,33,17,38,56,29*4D,,,,,,
$GPGSV,9,2,31,19,60,68,31,24,66,233,30,25,14,278,26,28,9,90,21*47,,,,,,
$GPGSV,9,3,31,32,16,321,25*40,,,,,,,,,,,,,,,,,,
$GLGSV,9,4,31,67,13,286,30,68,17,337,22,75,31,119,35,76,82,69,34*55,,,,,,
$GLGSV,9,5,31,77,36,310,21,85,42,41,34,86,64,153,34,87,9,194,21*63,,,,,,
$BDGSV,9,6,31,201,5,,,202,16,126,,203,7,110,,204,5,,*54,,,,,,
$BDGSV,9,7,31,205,28,164,31,206,5,,,207,21,97,,208,38,55,*60,,,,,,
$BDGSV,9,8,31,209,5,,,210,15,97,,211,56,177,24,212,28,48,*6D,,,,,,
$BDGSV,9,9,31,213,32,57,,214,5,,*5B,,,,,,,,,,,,,,
$GPRMC,104906.00,A,5242.3694,N,04126.6684,E,0.000,138.258,50420,,E,A*13,,,,,,,,,,,,,
$GPGGA,104907.00,5242.3692,N,04126.6689,E,1,15,0.666,125.224,M,,M,0,*46,,,,,,,,,,,
$GNGSA,A,3,2,6,12,17,19,24,25,28,32,67,68,75,77,85,87,,,,,,1.284,0.666,1.097*26
$GPGSA,A,3,2,6,12,17,19,24,25,28,32,,,,,,,,,,,,1.284,0.666,1.097*37
$GLGSA,A,3,67,68,75,77,85,87,,,,,,,,,,,,,,,1.284,0.666,1.097*27
$BDGSA,A,3,,,,,,,,,,,,,,,,,,,,,1.284,0.666,1.097*25
$QZGSA,A,3,,,,,,,,,,,,,,,,,,,,,1.284,0.666,1.097*28
$GPGSV,9,1,31,2,22,158,30,6,35,126,37,12,47,278,32,17,38,56,30*4E,,,,,,
$GPGSV,9,2,31,19,60,68,32,24,66,233,30,25,14,278,23,28,9,90,22*42,,,,,,
$GPGSV,9,3,31,32,16,321,27*42,,,,,,,,,,,,,,,,,,
$GLGSV,9,4,31,67,13,286,31,68,17,337,22,75,31,119,35,76,82,69,31*51,,,,,,
$GLGSV,9,5,31,77,36,310,20,85,42,41,30,86,64,153,35,87,9,194,20*66,,,,,,
$BDGSV,9,6,31,201,5,,,202,16,126,,203,7,110,,204,5,,*54,,,,,,
$BDGSV,9,7,31,205,28,164,31,206,5,,,207,21,97,,208,38,55,*60,,,,,,
$BDGSV,9,8,31,209,5,,,210,15,97,,211,56,177,27,212,28,48,*6E,,,,,,
$BDGSV,9,9,31,213,32,57,,214,5,,*5B,,,,,,,,,,,,,,
$GPRMC,104907.00,A,5242.3692,N,04126.6689,E,0.471,138.258,50420,,E,A*1B,,,,,,,,,,,,,
$GPGGA,104908.00,5242.3692,N,04126.6689,E,1,15,0.666,125.224,M,,M,0,*49,,,,,,,,,,,
$GNGSA,A,3,2,6,12,17,19,24,25,28,32,67,68,75,77,85,87,,,,,,1.284,0.666,1.097*26
$GPGSA,A,3,2,6,12,17,19,24,25,28,32,,,,,,,,,,,,1.284,0.666,1.097*37
$GLGSA,A,3,67,68,75,77,85,87,,,,,,,,,,,,,,,1.284,0.666,1.097*27
$BDGSA,A,3,,,,,,,,,,,,,,,,,,,,,1.284,0.666,1.097*25
$QZGSA,A,3,,,,,,,,,,,,,,,,,,,,,1.284,0.666,1.097*28
$GPGSV,9,1,31,2,22,158,29,6,35,126,37,12,47,278,32,17,38,56,26*41,,,,,,
$GPGSV,9,2,31,19,60,68,30,24,66,233,31,25,14,278,25,28,9,90,23*46,,,,,,
$GPGSV,9,3,31,32,16,321,28*4D,,,,,,,,,,,,,,,,,,
$GLGSV,9,4,31,67,13,286,35,68,17,337,22,75,31,119,31,76,82,69,35*55,,,,,,
$GLGSV,9,5,31,77,36,310,20,85,42,41,35,86,64,153,36,87,9,194,19*6A,,,,,,
$BDGSV,9,6,31,201,5,,,202,16,126,,203,7,110,,204,5,,*54,,,,,,
$BDGSV,9,7,31,205,28,164,26,206,5,,,207,21,97,,208,38,55,*66,,,,,,
$BDGSV,9,8,31,209,5,,,210,15,97,,211,56,177,32,212,28,48,*6A,,,,,,
$BDGSV,9,9,31,213,32,57,,214,5,,*5B,,,,,,,,,,,,,,
$GPRMC,104908.00,A,5242.3692,N,04126.6689,E,0.000,138.258,50420,,E,A*16,,,,,,,,,,,,,
$GPGGA,104909.00,5242.3692,N,04126.6689,E,1,16,0.665,125.224,M,,M,0,*48,,,,,,,,,,,
$GNGSA,A,3,2,6,12,17,19,24,25,28,32,67,68,75,76,77,85,87,,,,,1.180,0.665,0.975*27
$GPGSA,A,3,2,6,12,17,19,24,25,28,32,,,,,,,,,,,,1.180,0.665,0.975*37
$GLGSA,A,3,67,68,75,76,77,85,87,,,,,,,,,,,,,,1.180,0.665,0.975*26
$BDGSA,A,3,,,,,,,,,,,,,,,,,,,,,1.180,0.665,0.975*25
$QZGSA,A,3,,,,,,,,,,,,,,,,,,,,,1.180,0.665,0.975*28
$GPGSV,9,1,31,2,22,158,25,6,35,126,30,12,47,278,30,17,38,56,27*49,,,,,,
$GPGSV,9,2,31,19,60,68,31,24,66,233,35,25,14,278,28,28,9,90,19*47,,,,,,
$GPGSV,9,3,31,32,16,321,26*43,,,,,,,,,,,,,,,,,,
$GLGSV,9,4,31,67,13,286,32,68,17,337,21,75,31,119,23,76,81,70,35*59,,,,,,
$GLGSV,9,5,31,77,36,310,21,85,42,41,32,86,64,153,37,87,9,194,18*6C,,,,,,
$BDGSV,9,6,31,201,5,,,202,16,126,,203,7,110,,204,5,,*54,,,,,,
$BDGSV,9,7,31,205,28,164,26,206,5,,,207,21,97,,208,38,55,*66,,,,,,
$BDGSV,9,8,31,209,5,,,210,15,97,,211,56,177,32,212,28,48,*6A,,,,,,
$BDGSV,9,9,31,213,32,57,,214,5,,*5B,,,,,,,,,,,,,,
$GPRMC,104909.00,A,5242.3692,N,04126.6689,E,0.000,138.258,50420,,E,A*17,,,,,,,,,,,,,
$GPGGA,104910.00,5242.3692,N,04126.6689,E,1,16,0.665,125.224,M,,M,0,*40,,,,,,,,,,,
$GNGSA,A,3,2,6,12,17,19,24,25,28,32,67,68,75,76,77,85,87,,,,,1.180,0.665,0.975*27
$GPGSA,A,3,2,6,12,17,19,24,25,28,32,,,,,,,,,,,,1.180,0.665,0.975*37
$GLGSA,A,3,67,68,75,76,77,85,87,,,,,,,,,,,,,,1.180,0.665,0.975*26
$BDGSA,A,3,,,,,,,,,,,,,,,,,,,,,1.180,0.665,0.975*25
$QZGSA,A,3,,,,,,,,,,,,,,,,,,,,,1.180,0.665,0.975*28
$GPGSV,9,1,31,2,22,158,24,6,35,126,23,12,47,278,33,17,38,56,23*4D,,,,,,
$GPGSV,9,2,31,19,60,68,29,24,66,233,36,25,14,278,29,28,9,90,19*4C,,,,,,
$GPGSV,9,3,31,32,16,321,29*4C,,,,,,,,,,,,,,,,,,
$GLGSV,9,4,31,67,13,286,27,68,17,337,19,75,31,119,25,76,81,70,35*50,,,,,,
$GLGSV,9,5,31,77,36,310,23,85,42,41,29,86,64,153,30,87,9,194,19*62,,,,,,
$BDGSV,9,6,31,201,5,,,202,16,126,,203,7,110,,204,5,,*54,,,,,,
$BDGSV,9,7,31,205,28,164,22,206,5,,,207,21,97,,208,38,55,*62,,,,,,
$BDGSV,9,8,31,209,5,,,210,15,97,,211,56,177,28,212,28,48,*61,,,,,,
$BDGSV,9,9,31,213,32,57,,214,5,,*5B,,,,,,,,,,,,,,
$GPRMC,104910.00,A,5242.3692,N,04126.6689,E,0.000,138.258,50420,,E,A*1F,,,,,,,,,,,,,
$GPGGA,104911.00,5242.3692,N,04126.6689,E,1,16,0.665,125.224,M,,M,0,*41,,,,,,,,,,,
$GNGSA,A,3,2,6,12,17,19,24,25,28,32,67,68,75,76,77,85,87,,,,,1.180,0.665,0.975*27
$GPGSA,A,3,2,6,12,17,19,24,25,28,32,,,,,,,,,,,,1.180,0.665,0.975*37
$GLGSA,A,3,67,68,75,76,77,85,87,,,,,,,,,,,,,,1.180,0.665,0.975*26
$BDGSA,A,3,,,,,,,,,,,,,,,,,,,,,1.180,0.665,0.975*25
$QZGSA,A,3,,,,,,,,,,,,,,,,,,,,,1.180,0.665,0.975*28
$GPGSV,9,1,31,2,22,158,21,6,35,126,24,12,47,278,33,17,38,56,26*4A,,,,,,
$GPGSV,9,2,31,19,60,68,30,24,66,233,35,25,14,278,30,28,9,90,19*4F,,,,,,
$GPGSV,9,3,31,32,16,321,33*47,,,,,,,,,,,,,,,,,,
$GLGSV,9,4,31,67,12,286,31,68,17,337,22,75,31,119,24,76,81,70,35*5F,,,,,,
$GLGSV,9,5,31,77,36,310,24,85,42,41,32,86,64,153,30,87,9,194,19*6F,,,,,,
$BDGSV,9,6,31,201,5,,,202,16,126,,203,7,110,,204,5,,*54,,,,,,
$BDGSV,9,7,31,205,28,164,22,206,5,,,207,21,97,,208,38,55,*62,,,,,,
$BDGSV,9,8,31,209,5,,,210,15,97,,211,56,177,25,212,28,48,*6C,,,,,,
$BDGSV,9,9,31,213,32,57,,214,5,,*5B,,,,,,,,,,,,,,
$GPRMC,104911.00,A,5242.3692,N,04126.6689,E,0.000,138.258,50420,,E,A*1E,,,,,,,,,,,,,
$GPGGA,104912.00,5242.3690,N,04126.6683,E,1,16,0.665,125.875,M,,M,0,*44,,,,,,,,,,,
$GNGSA,A,3,2,6,12,17,19,24,25,28,32,67,68,75,76,77,85,87,,,,,1.180,0.665,0.975*27
$GPGSA,A,3,2,6,12,17,19,24,25,28,32,,,,,,,,,,,,1.180,0.665,0.975*37
$GLGSA,A,3,67,68,75,76,77,85,87,,,,,,,,,,,,,,1.180,0.665,0.975*26
$BDGSA,A,3,,,,,,,,,,,,,,,,,,,,,1.180,0.665,0.975*25
$QZGSA,A,3,,,,,,,,,,,,,,,,,,,,,1.180,0.665,0.975*28
$GPGSV,9,1,31,2,22,158,22,6,35,126,19,12,47,278,34,17,38,56,27*41,,,,,,
$GPGSV,9,2,31,19,60,68,29,24,66,233,36,25,14,278,33,28,9,90,21*4C,,,,,,
$GPGSV,9,3,31,32,16,321,32*46,,,,,,,,,,,,,,,,,,
$GLGSV,9,4,31,67,12,286,32,68,17,337,24,75,31,119,26,76,81,70,34*59,,,,,,
$GLGSV,9,5,31,77,36,310,23,85,42,41,32,86,64,153,29,87,9,194,18*61,,,,,,
$BDGSV,9,6,31,201,5,,,202,16,126,,203,7,110,,204,5,,*54,,,,,,
$BDGSV,9,7,31,205,28,164,18,206,5,,,207,21,97,,208,38,55,*6B,,,,,,
$BDGSV,9,8,31,209,5,,,210,15,97,,211,56,177,25,212,28,48,*6C,,,,,,
$BDGSV,9,9,31,213,32,57,,214,5,,*5B,,,,,,,,,,,,,,
$GPRMC,104912.00,A,5242.3690,N,04126.6683,E,1.174,138.258,50420,,E,A*16,,,,,,,,,,,,,
$GPGGA,104913.00,5242.3689,N,04126.6677,E,1,16,0.665,126.949,M,,M,0,*4B,,,,,,,,,,,
$GNGSA,A,3,2,6,12,17,19,24,25,28,32,67,68,75,76,77,85,87,,,,,1.180,0.665,0.975*27
$GPGSA,A,3,2,6,12,17,19,24,25,28,32,,,,,,,,,,,,1.180,0.665,0.975*37
$GLGSA,A,3,67,68,75,76,77,85,87,,,,,,,,,,,,,,1.180,0.665,0.975*26
$BDGSA,A,3,,,,,,,,,,,,,,,,,,,,,1.180,0.665,0.975*25
$QZGSA,A,3,,,,,,,,,,,,,,,,,,,,,1.180,0.665,0.975*28
$GPGSV,9,1,31,2,22,158,23,6,35,126,23,12,47,278,40,17,38,56,30*4C,,,,,,
$GPGSV,9,2,31,19,60,68,31,24,66,233,35,25,14,278,31,28,9,90,22*47,,,,,,
$GPGSV,9,3,31,32,16,321,34*40,,,,,,,,,,,,,,,,,,
$GLGSV,9,4,31,67,12,286,35,68,17,337,29,75,30,119,22,76,81,70,34*56,,,,,,
$GLGSV,9,5,31,77,36,310,26,85,42,41,32,86,64,153,32,87,10,194,19*57,,,,,,
$BDGSV,9,6,31,201,5,,,202,16,126,,203,7,110,,204,5,,*54,,,,,,
$BDGSV,9,7,31,205,28,164,18,206,5,,,207,21,97,,208,38,55,*6B,,,,,,
$BDGSV,9,8,31,209,5,,,210,15,97,,211,57,177,26,212,28,48,*6E,,,,,,
$BDGSV,9,9,31,213,32,57,,214,5,,*5B,,,,,,,,,,,,,,
$GPRMC,104913.00,A,5242.3689,N,04126.6677,E,0.915,138.258,50420,,E,A*1A,,,,,,,,,,,,,
$GPGGA,104914.00,5242.3690,N,04126.6671,E,1,16,0.665,127.882,M,,M,0,*45,,,,,,,,,,,
$GNGSA,A,3,2,6,12,17,19,24,25,28,32,67,68,75,76,77,85,87,,,,,1.180,0.665,0.975*27
$GPGSA,A,3,2,6,12,17,19,24,25,28,32,,,,,,,,,,,,1.180,0.665,0.975*37
$GLGSA,A,3,67,68,75,76,77,85,87,,,,,,,,,,,,,,1.180,0.665,0.975*26
$BDGSA,A,3,,,,,,,,,,,,,,,,,,,,,1.180,0.665,0.975*25
$QZGSA,A,3,,,,,,,,,,,,,,,,,,,,,1.180,0.665,0.975*28
$GPGSV,9,1,31,2,22,158,25,6,35,126,26,12,47,278,37,17,38,56,28*46,,,,,,
$GPGSV,9,2,31,19,60,68,31,24,66,233,38,25,14,278,27,28,9,90,20*4F,,,,,,
$GPGSV,9,3,31,32,16,321,40*43,,,,,,,,,,,,,,,,,,
$GLGSV,9,4,31,67,12,286,30,68,17,337,32,75,30,119,24,76,81,70,36*5D,,,,,,
$GLGSV,9,5,31,77,36,310,25,85,42,41,30,86,64,153,31,87,10,194,18*54,,,,,,
$BDGSV,9,6,31,201,5,,,202,16,126,,203,7,110,,204,5,,*54,,,,,,
$BDGSV,9,7,31,205,28,164,17,206,5,,,207,21,97,,208,38,55,*64,,,,,,
$BDGSV,9,8,31,209,5,,,210,15,97,,211,57,177,21,212,28,48,*69,,,,,,
$BDGSV,9,9,31,213,32,57,,214,5,,*5B,,,,,,,,,,,,,,
$GPRMC,104914.00,A,5242.3690,N,04126.6671,E,0.000,138.258,50420,,E,A*1E,,,,,,,,,,,,,
$GPGGA,104915.00,5242.3690,N,04126.6671,E,1,16,0.665,127.882,M,,M,0,*44,,,,,,,,,,,
$GNGSA,A,3,2,6,12,17,19,24,25,28,32,67,68,75,76,77,85,87,,,,,1.180,0.665,0.975*27
$GPGSA,A,3,2,6,12,17,19,24,25,28,32,,,,,,,,,,,,1.180,0.665,0.975*37
$GLGSA,A,3,67,68,75,76,77,85,87,,,,,,,,,,,,,,1.180,0.665,0.975*26
$BDGSA,A,3,,,,,,,,,,,,,,,,,,,,,1.180,0.665,0.975*25
$QZGSA,A,3,,,,,,,,,,,,,,,,,,,,,1.180,0.665,0.975*28
$GPGSV,9,1,31,2,22,158,22,6,35,126,26,12,47,278,35,17,38,56,27*4C,,,,,,
$GPGSV,9,2,31,19,60,68,31,24,66,233,36,25,14,278,28,28,9,90,20*4E,,,,,,
$GPGSV,9,3,31,32,16,321,39*4D,,,,,,,,,,,,,,,,,,
$GLGSV,9,4,31,67,12,286,28,68,17,337,33,75,30,119,25,76,81,70,34*56,,,,,,
$GLGSV,9,5,31,77,36,310,23,85,42,41,32,86,64,153,31,87,10,194,18*50,,,,,,
$BDGSV,9,6,31,201,5,,,202,16,126,,203,7,110,,204,5,,*54,,,,,,
$BDGSV,9,7,31,205,28,164,17,206,5,,,207,21,97,,208,38,55,*64,,,,,,
$BDGSV,9,8,31,209,5,,,210,15,97,,211,57,177,22,212,28,48,*6A,,,,,,
$BDGSV,9,9,31,213,32,57,,214,5,,*5B,,,,,,,,,,,,,,
$GPRMC,104915.00,A,5242.3690,N,04126.6671,E,0.000,138.258,50420,,E,A*1F,,,,,,,,,,,,,
$GPGGA,104916.00,5242.3694,N,04126.6666,E,1,16,0.665,128.023,M,,M,0,*49,,,,,,,,,,,
$GNGSA,A,3,2,6,12,17,19,24,25,28,32,67,68,75,76,77,85,87,,,,,1.180,0.665,0.975*27
$GPGSA,A,3,2,6,12,17,19,24,25,28,32,,,,,,,,,,,,1.180,0.665,0.975*37
$GLGSA,A,3,67,68,75,76,77,85,87,,,,,,,,,,,,,,1.180,0.665,0.975*26
$BDGSA,A,3,,,,,,,,,,,,,,,,,,,,,1.180,0.665,0.975*25
$QZGSA,A,3,,,,,,,,,,,,,,,,,,,,,1.180,0.665,0.975*28
$GPGSV,9,1,31,2,22,158,24,6,35,126,27,12,47,278,35,17,38,56,29*45,,,,,,
$GPGSV,9,2,31,19,60,68,30,24,66,233,35,25,14,278,24,28,9,90,21*41,,,,,,
$GPGSV,9,3,31,32,16,321,38*4C,,,,,,,,,,,,,,,,,,
$GLGSV,9,4,31,67,12,286,28,68,17,337,30,75,30,119,26,76,81,70,33*51,,,,,,
$GLGSV,9,5,31,77,36,310,26,85,42,41,28,86,64,153,32,87,10,194,18*5D,,,,,,
$BDGSV,9,6,31,201,5,,,202,16,126,,203,7,110,,204,5,,*54,,,,,,
$BDGSV,9,7,31,205,28,164,18,206,5,,,207,21,97,,208,38,55,*6B,,,,,,
$BDGSV,9,8,31,209,5,,,210,15,97,,211,57,177,24,212,28,48,*6C,,,,,,
$BDGSV,9,9,31,213,32,57,,214,5,,*5B,,,,,,,,,,,,,,
$GPRMC,104916.00,A,5242.3694,N,04126.6666,E,2.196,329.928,50420,,E,A*1C,,,,,,,,,,,,,
$GPGGA,104917.00,5242.3700,N,04126.6658,E,1,16,0.665,128.247,M,,M,0,*49,,,,,,,,,,,
$GNGSA,A,3,2,6,12,17,19,24,25,28,32,67,68,75,76,77,85,87,,,,,1.180,0.665,0.975*27
$GPGSA,A,3,2,6,12,17,19,24,25,28,32,,,,,,,,,,,,1.180,0.665,0.975*37
$GLGSA,A,3,67,68,75,76,77,85,87,,,,,,,,,,,,,,1.180,0.665,0.975*26
$BDGSA,A,3,,,,,,,,,,,,,,,,,,,,,1.180,0.665,0.975*25
$QZGSA,A,3,,,,,,,,,,,,,,,,,,,,,1.180,0.665,0.975*28
$GPGSV,9,1,31,2,22,158,29,6,35,126,29,12,47,278,32,17,38,56,27*4F,,,,,,
$GPGSV,9,2,31,19,60,68,32,24,65,233,36,25,14,278,25,28,9,90,22*41,,,,,,
$GPGSV,9,3,31,32,16,321,39*4D,,,,,,,,,,,,,,,,,,
$GLGSV,9,4,31,67,12,286,31,68,17,337,32,75,30,119,25,76,81,71,34*5E,,,,,,
$GLGSV,9,5,31,77,36,310,26,85,42,41,29,86,64,153,31,87,10,194,18*5F,,,,,,
$BDGSV,9,6,31,201,5,,,202,16,126,,203,7,110,,204,5,,*54,,,,,,
$BDGSV,9,7,31,205,28,164,18,206,5,,,207,21,97,,208,38,55,*6B,,,,,,
$BDGSV,9,8,31,209,5,,,210,15,97,,211,57,177,28,212,28,48,*60,,,,,,
$BDGSV,9,9,31,213,32,57,,214,5,,*5B,,,,,,,,,,,,,,
$GPRMC,104917.00,A,5242.3700,N,04126.6658,E,2.146,329.842,50420,,E,A*1C,,,,,,,,,,,,,
$GPGGA,104918.00,5242.3707,N,04126.6650,E,1,16,0.665,128.439,M,,M,0,*46,,,,,,,,,,,
$GNGSA,A,3,2,6,12,17,19,24,25,28,32,67,68,75,76,77,85,87,,,,,1.180,0.665,0.975*27
$GPGSA,A,3,2,6,12,17,19,24,25,28,32,,,,,,,,,,,,1.180,0.665,0.975*37
$GLGSA,A,3,67,68,75,76,77,85,87,,,,,,,,,,,,,,1.180,0.665,0.975*26
$BDGSA,A,3,,,,,,,,,,,,,,,,,,,,,1.180,0.665,0.975*25
$QZGSA,A,3,,,,,,,,,,,,,,,,,,,,,1.180,0.665,0.975*28
$GPGSV,9,1,31,2,22,158,24,6,35,126,29,12,47,278,37,17,38,56,29*49,,,,,,
$GPGSV,9,2,31,19,60,68,32,24,65,233,32,25,14,278,25,28,9,90,20*47,,,,,,
$GPGSV,9,3,31,32,16,321,40*43,,,,,,,,,,,,,,,,,,
$GLGSV,9,4,31,67,12,286,27,68,17,337,32,75,30,119,25,76,81,71,35*58,,,,,,
$GLGSV,9,5,31,77,36,310,25,85,42,41,28,86,64,153,31,87,10,194,18*5D,,,,,,
$BDGSV,9,6,31,201,5,,,202,16,126,,203,7,110,,204,5,,*54,,,,,,
$BDGSV,9,7,31,205,28,164,15,206,5,,,207,21,97,,208,38,55,*66,,,,,,
$BDGSV,9,8,31,209,5,,,210,15,97,,211,57,177,27,212,28,48,*6F,,,,,,
$BDGSV,9,9,31,213,32,57,,214,5,,*5B,,,,,,,,,,,,,,
$GPRMC,104918.00,A,5242.3707,N,04126.6650,E,2.020,324.899,50420,,E,A*16,,,,,,,,,,,,,
$GPGGA,104919.00,5242.3712,N,04126.6642,E,1,16,0.665,128.858,M,,M,0,*4B,,,,,,,,,,,
$GNGSA,A,3,2,6,12,17,19,24,25,28,32,67,68,75,76,77,85,87,,,,,1.180,0.665,0.975*27
$GPGSA,A,3,2,6,12,17,19,24,25,28,32,,,,,,,,,,,,1.180,0.665,0.975*37
$GLGSA,A,3,67,68,75,76,77,85,87,,,,,,,,,,,,,,1.180,0.665,0.975*26
$BDGSA,A,3,,,,,,,,,,,,,,,,,,,,,1.180,0.665,0.975*25
$QZGSA,A,3,,,,,,,,,,,,,,,,,,,,,1.180,0.665,0.975*28
$GPGSV,9,1,31,2,22,158,20,6,35,126,27,12,47,278,37,17,38,56,28*42,,,,,,
$GPGSV,9,2,31,19,60,68,30,24,65,233,36,25,15,278,28,28,9,90,20*4D,,,,,,
$GPGSV,9,3,31,32,16,321,39*4D,,,,,,,,,,,,,,,,,,
$GLGSV,9,4,31,67,12,286,31,68,17,337,32,75,30,119,25,76,81,71,34*5E,,,,,,
$GLGSV,9,5,31,77,36,310,27,85,42,41,27,86,64,153,31,87,10,194,18*50,,,,,,
$BDGSV,9,6,31,201,5,,,202,16,126,,203,7,110,,204,5,,*54,,,,,,
$BDGSV,9,7,31,205,28,164,15,206,5,,,207,21,97,,208,38,55,*66,,,,,,
$BDGSV,9,8,31,209,5,,,210,15,97,,211,57,177,25,212,28,48,*6D,,,,,,
$BDGSV,9,9,31,213,32,57,,214,5,,*5B,,,,,,,,,,,,,,
$GPRMC,104919.00,A,5242.3712,N,04126.6642,E,1.573,310.784,50420,,E,A*14,,,,,,,,,,,,,
$GPGGA,104920.00,5242.3718,N,04126.6634,E,1,16,0.665,129.053,M,,M,0,*48,,,,,,,,,,,
$GNGSA,A,3,2,6,12,17,19,24,25,28,32,67,68,75,76,77,85,87,,,,,1.180,0.665,0.975*27
$GPGSA,A,3,2,6,12,17,19,24,25,28,32,,,,,,,,,,,,1.180,0.665,0.975*37
$GLGSA,A,3,67,68,75,76,77,85,87,,,,,,,,,,,,,,1.180,0.665,0.975*26
$BDGSA,A,3,,,,,,,,,,,,,,,,,,,,,1.180,0.665,0.975*25
$QZGSA,A,3,,,,,,,,,,,,,,,,,,,,,1.180,0.665,0.975*28
$GPGSV,9,1,31,2,22,158,24,6,35,126,26,12,47,278,35,17,38,56,27*4A,,,,,,
$GPGSV,9,2,31,19,60,68,29,24,65,233,35,25,15,278,26,28,9,90,20*48,,,,,,
$GPGSV,9,3,31,32,16,321,36*42,,,,,,,,,,,,,,,,,,
$GLGSV,9,4,31,67,12,286,28,68,17,337,29,75,30,119,23,76,81,71,34*5A,,,,,,
$GLGSV,9,5,31,77,36,310,26,85,42,41,29,86,64,153,29,87,10,194,19*57,,,,,,
$BDGSV,9,6,31,201,5,,,202,16,126,,203,7,110,,204,5,,*54,,,,,,
$BDGSV,9,7,31,205,28,164,12,206,5,,,207,21,97,,208,38,55,*61,,,,,,
$BDGSV,9,8,31,209,5,,,210,15,97,,211,57,177,27,212,28,48,*6F,,,,,,
$BDGSV,9,9,31,213,32,57,,214,5,,*5B,,,,,,,,,,,,,,
$GPRMC,104920.00,A,5242.3718,N,04126.6634,E,2.386,327.615,50420,,E,A*17,,,,,,,,,,,,,
$GPGGA,104921.00,5242.3723,N,04126.6627,E,1,16,0.665,129.028,M,,M,0,*4F,,,,,,,,,,,
$GNGSA,A,3,2,6,12,17,19,24,25,28,32,67,68,75,76,77,85,87,,,,,1.180,0.665,0.975*27
$GPGSA,A,3,2,6,12,17,19,24,25,28,32,,,,,,,,,,,,1.180,0.665,0.975*37
$GLGSA,A,3,67,68,75,76,77,85,87,,,,,,,,,,,,,,1.180,0.665,0.975*26
$BDGSA,A,3,,,,,,,,,,,,,,,,,,,,,1.180,0.665,0.975*25
$QZGSA,A,3,,,,,,,,,,,,,,,,,,,,,1.180,0.665,0.975*28
$GPGSV,9,1,31,2,22,158,22,6,35,126,24,12,47,278,34,17,38,56,25*4D,,,,,,
$GPGSV,9,2,31,19,60,68,27,24,65,233,36,25,15,278,26,28,9,90,19*4F,,,,,,
$GPGSV,9,3,31,32,16,321,34*40,,,,,,,,,,,,,,,,,,
$GLGSV,9,4,31,67,12,286,28,68,17,337,29,75,30,119,25,76,81,71,33*5B,,,,,,
$GLGSV,9,5,31,77,36,310,25,85,42,41,27,86,64,153,32,87,10,194,19*50,,,,,,
$BDGSV,9,6,31,201,5,,,202,16,126,,203,7,110,,204,5,,*54,,,,,,
$BDGSV,9,7,31,205,28,164,12,206,5,,,207,21,97,,208,38,55,*61,,,,,,
$BDGSV,9,8,31,209,5,,,210,15,97,,211,57,177,26,212,28,48,*6E,,,,,,
$BDGSV,9,9,31,213,32,57,,214,5,,*5B,,,,,,,,,,,,,,
$GPRMC,104921.00,A,5242.3723,N,04126.6627,E,2.210,314.464,50420,,E,A*16,,,,,,,,,,,,,
$GPGGA,104922.00,5242.3730,N,04126.6621,E,1,16,0.665,129.232,M,,M,0,*41,,,,,,,,,,,
$GNGSA,A,3,2,6,12,17,19,24,25,28,32,67,68,75,76,77,85,87,,,,,1.180,0.665,0.975*27
$GPGSA,A,3,2,6,12,17,19,24,25,28,32,,,,,,,,,,,,1.180,0.665,0.975*37
$GLGSA,A,3,67,68,75,76,77,85,87,,,,,,,,,,,,,,1.180,0.665,0.975*26
$BDGSA,A,3,,,,,,,,,,,,,,,,,,,,,1.180,0.665,0.975*25
$QZGSA,A,3,,,,,,,,,,,,,,,,,,,,,1.180,0.665,0.975*28
$GPGSV,9,1,31,2,22,158,21,6,35,126,25,12,47,278,34,17,38,56,24*4E,,,,,,
$GPGSV,9,2,31,19,60,68,28,24,65,233,36,25,15,278,29,28,9,90,19*4F,,,,,,
$GPGSV,9,3,31,32,16,321,36*42,,,,,,,,,,,,,,,,,,
$GLGSV,9,4,31,67,12,286,28,68,17,337,29,75,30,119,25,76,81,71,34*5C,,,,,,
$GLGSV,9,5,31,77,36,310,25,85,42,41,24,86,64,153,30,87,10,194,20*5B,,,,,,
$BDGSV,9,6,31,201,5,,,202,16,126,,203,7,110,,204,5,,*54,,,,,,
$BDGSV,9,7,31,205,28,164,13,206,5,,,207,21,97,,208,38,55,*60,,,,,,
$BDGSV,9,8,31,209,5,,,210,15,97,,211,57,177,27,212,28,48,*6F,,,,,,
$BDGSV,9,9,31,213,32,57,,214,5,,*5B,,,,,,,,,,,,,,
$GPRMC,104922.00,A,5242.3730,N,04126.6621,E,2.089,335.375,50420,,E,A*17,,,,,,,,,,,,,
$GPGGA,104923.00,5242.3735,N,04126.6615,E,1,16,0.665,129.355,M,,M,0,*42,,,,,,,,,,,
$GNGSA,A,3,2,6,12,17,19,24,25,28,32,67,68,75,76,77,85,87,,,,,1.180,0.665,0.975*27
$GPGSA,A,3,2,6,12,17,19,24,25,28,32,,,,,,,,,,,,1.180,0.665,0.975*37
$GLGSA,A,3,67,68,75,76,77,85,87,,,,,,,,,,,,,,1.180,0.665,0.975*26
$BDGSA,A,3,,,,,,,,,,,,,,,,,,,,,1.180,0.665,0.975*25
$QZGSA,A,3,,,,,,,,,,,,,,,,,,,,,1.180,0.665,0.975*28
$GPGSV,9,1,31,2,22,158,19,6,35,126,27,12,47,278,34,17,38,56,23*40,,,,,,
$GPGSV,9,2,31,19,60,68,30,24,65,233,35,25,15,278,25,28,9,90,19*49,,,,,,
$GPGSV,9,3,31,32,16,321,32*46,,,,,,,,,,,,,,,,,,
$GLGSV,9,4,31,67,12,286,25,68,17,337,33,75,30,119,24,76,81,71,34*5B,,,,,,
$GLGSV,9,5,31,77,36,310,24,85,42,41,27,86,64,153,30,87,10,194,20*59,,,,,,
$BDGSV,9,6,31,201,5,,,202,16,126,,203,7,110,,204,5,,*54,,,,,,
$BDGSV,9,7,31,205,28,164,13,206,5,,,207,21,97,,208,38,55,*60,,,,,,
$BDGSV,9,8,31,209,5,,,210,15,97,,211,57,177,28,212,28,48,*60,,,,,,
$BDGSV,9,9,31,213,32,57,,214,5,,*5B,,,,,,,,,,,,,,
$GPRMC,104923.00,A,5242.3735,N,04126.6615,E,1.725,327.768,50420,,E,A*1D,,,,,,,,,,,,,
$GPGGA,104924.00,5242.3740,N,04126.6610,E,1,16,0.665,129.429,M,,M,0,*4E,,,,,,,,,,,
$GNGSA,A,3,2,6,12,17,19,24,25,28,32,67,68,75,76,77,85,87,,,,,1.180,0.665,0.975*27
$GPGSA,A,3,2,6,12,17,19,24,25,28,32,,,,,,,,,,,,1.180,0.665,0.975*37
$GLGSA,A,3,67,68,75,76,77,85,87,,,,,,,,,,,,,,1.180,0.665,0.975*26
$BDGSA,A,3,,,,,,,,,,,,,,,,,,,,,1.180,0.665,0.975*25
$QZGSA,A,3,,,,,,,,,,,,,,,,,,,,,1.180,0.665,0.975*28
$GPGSV,9,1,31,2,22,158,23,6,35,126,27,12,47,278,38,17,38,56,23*45,,,,,,
$GPGSV,9,2,31,19,60,68,25,24,65,233,36,25,15,278,26,28,9,90,18*4C,,,,,,
$GPGSV,9,3,31,32,16,321,29*4C,,,,,,,,,,,,,,,,,,
$GLGSV,9,4,31,67,12,286,26,68,17,337,29,75,30,119,26,76,81,71,34*51,,,,,,
$GLGSV,9,5,31,77,36,310,25,85,42,41,30,86,64,153,32,87,10,194,20*5C,,,,,,
$BDGSV,9,6,31,201,5,,,202,16,126,,203,7,110,,204,5,,*54,,,,,,
$BDGSV,9,7,31,205,28,164,14,206,5,,,207,21,97,,208,38,55,*67,,,,,,
$BDGSV,9,8,31,209,5,,,210,15,97,,211,57,177,27,212,28,48,*6F,,,,,,
$BDGSV,9,9,31,213,32,57,,214,5,,*5B,,,,,,,,,,,,,,
$GPRMC,104924.00,A,5242.3740,N,04126.6610,E,1.539,341.795,50420,,E,A*10,,,,,,,,,,,,,
$GPGGA,104925.00,5242.3743,N,04126.6606,E,1,16,0.665,129.584,M,,M,0,*4D,,,,,,,,,,,
$GNGSA,A,3,2,6,12,17,19,24,25,28,32,67,68,75,76,77,85,87,,,,,1.180,0.665,0.975*27
$GPGSA,A,3,2,6,12,17,19,24,25,28,32,,,,,,,,,,,,1.180,0.665,0.975*37
$GLGSA,A,3,67,68,75,76,77,85,87,,,,,,,,,,,,,,1.180,0.665,0.975*26
$BDGSA,A,3,,,,,,,,,,,,,,,,,,,,,1.180,0.665,0.975*25
$QZGSA,A,3,,,,,,,,,,,,,,,,,,,,,1.180,0.665,0.975*28
$GPGSV,9,1,31,2,22,158,22,6,35,126,26,12,47,278,36,17,38,56,24*4C,,,,,,
$GPGSV,9,2,31,19,60,68,24,24,65,233,35,25,15,278,27,28,9,90,18*4F,,,,,,
$GPGSV,9,3,31,32,16,321,28*4D,,,,,,,,,,,,,,,,,,
$GLGSV,9,4,31,67,12,286,27,68,17,337,34,75,30,119,22,76,81,71,33*5F,,,,,,
$GLGSV,9,5,31,77,36,310,26,85,42,41,27,86,64,153,31,87,10,194,19*50,,,,,,
$BDGSV,9,6,31,201,5,,,202,16,126,,203,7,110,,204,5,,*54,,,,,,
$BDGSV,9,7,31,205,28,164,14,206,5,,,207,21,97,,208,38,55,*67,,,,,,
$BDGSV,9,8,31,209,5,,,210,15,97,,211,57,177,28,212,28,48,*60,,,,,,
$BDGSV,9,9,31,213,32,57,,214,5,,*5B,,,,,,,,,,,,,,
$GPRMC,104925.00,A,5242.3743,N,04126.6606,E,0.000,0.000,50420,,E,A*16,,,,,,,,,,,,,
$GPGGA,104926.00,5242.3745,N,04126.6600,E,1,16,0.665,129.427,M,,M,0,*46,,,,,,,,,,,
$GNGSA,A,3,2,6,12,17,19,24,25,28,32,67,68,75,76,77,85,87,,,,,1.180,0.665,0.975*27
$GPGSA,A,3,2,6,12,17,19,24,25,28,32,,,,,,,,,,,,1.180,0.665,0.975*37
$GLGSA,A,3,67,68,75,76,77,85,87,,,,,,,,,,,,,,1.180,0.665,0.975*26
$BDGSA,A,3,,,,,,,,,,,,,,,,,,,,,1.180,0.665,0.975*25
$QZGSA,A,3,,,,,,,,,,,,,,,,,,,,,1.180,0.665,0.975*28
$GPGSV,9,1,31,2,22,158,22,6,35,126,26,12,47,278,36,17,38,56,28*40,,,,,,
$GPGSV,9,2,31,19,60,68,29,24,65,232,35,25,15,278,27,28,9,90,18*43,,,,,,
$GPGSV,9,3,31,32,16,321,31*45,,,,,,,,,,,,,,,,,,
$GLGSV,9,4,31,67,12,286,25,68,17,337,39,75,30,119,20,76,81,71,34*55,,,,,,
$GLGSV,9,5,31,77,36,310,25,85,42,41,28,86,64,153,31,87,10,194,18*5D,,,,,,
$BDGSV,9,6,31,201,5,,,202,16,126,,203,7,110,,204,5,,*54,,,,,,
$BDGSV,9,7,31,205,28,164,14,206,5,,,207,21,97,,208,38,55,*67,,,,,,
$BDGSV,9,8,31,209,5,,,210,15,97,,211,57,177,26,212,28,48,*6E,,,,,,
$BDGSV,9,9,31,213,32,57,,214,5,,*5B,,,,,,,,,,,,,,
$GPRMC,104926.00,A,5242.3745,N,04126.6600,E,1.882,0.000,50420,,E,A*16,,,,,,,,,,,,,
$GPGGA,104927.00,5242.3749,N,04126.6593,E,1,16,0.665,129.256,M,,M,0,*42,,,,,,,,,,,
$GNGSA,A,3,2,6,12,17,19,24,25,28,32,67,68,75,76,77,85,87,,,,,1.180,0.665,0.975*27
$GPGSA,A,3,2,6,12,17,19,24,25,28,32,,,,,,,,,,,,1.180,0.665,0.975*37
$GLGSA,A,3,67,68,75,76,77,85,87,,,,,,,,,,,,,,1.180,0.665,0.975*26
$BDGSA,A,3,,,,,,,,,,,,,,,,,,,,,1.180,0.665,0.975*25
$QZGSA,A,3,,,,,,,,,,,,,,,,,,,,,1.180,0.665,0.975*28
$GPGSV,9,1,31,2,22,158,23,6,35,126,25,12,47,278,33,17,38,56,28*47,,,,,,
$GPGSV,9,2,31,19,60,68,28,24,65,232,36,25,15,278,27,28,9,90,17*4E,,,,,,
$GPGSV,9,3,31,32,16,321,35*41,,,,,,,,,,,,,,,,,,
$GLGSV,9,4,31,67,12,286,25,68,17,336,39,75,30,119,21,76,81,71,32*53,,,,,,
$GLGSV,9,5,31,77,36,310,24,85,42,41,28,86,64,153,32,87,10,194,22*56,,,,,,
$BDGSV,9,6,31,201,5,,,202,16,126,,203,7,110,,204,5,,*54,,,,,,
$BDGSV,9,7,31,205,28,164,14,206,5,,,207,21,97,,208,38,55,*67,,,,,,
$BDGSV,9,8,31,209,5,,,210,15,97,,211,57,177,28,212,28,48,*60,,,,,,
$BDGSV,9,9,31,213,32,57,,214,5,,*5B,,,,,,,,,,,,,,
$GPRMC,104927.00,A,5242.3749,N,04126.6593,E,1.350,0.000,50420,,E,A*16,,,,,,,,,,,,,
$GPGGA,104928.00,5242.3753,N,04126.6586,E,1,16,0.665,129.213,M,,M,0,*43,,,,,,,,,,,
$GNGSA,A,3,2,6,12,17,19,24,25,28,32,67,68,75,76,77,85,87,,,,,1.180,0.665,0.975*27
$GPGSA,A,3,2,6,12,17,19,24,25,28,32,,,,,,,,,,,,1.180,0.665,0.975*37
$GLGSA,A,3,67,68,75,76,77,85,87,,,,,,,,,,,,,,1.180,0.665,0.975*26
$BDGSA,A,3,,,,,,,,,,,,,,,,,,,,,1.180,0.665,0.975*25
$QZGSA,A,3,,,,,,,,,,,,,,,,,,,,,1.180,0.665,0.975*28
$GPGSV,9,1,31,2,22,158,23,6,35,126,26,12,47,278,36,17,38,56,29*40,,,,,,
$GPGSV,9,2,31,19,60,68,29,24,65,232,35,25,15,278,27,28,9,90,17*4C,,,,,,
$GPGSV,9,3,31,32,16,321,33*47,,,,,,,,,,,,,,,,,,
$GLGSV,9,4,31,67,12,286,22,68,17,336,37,75,30,119,21,76,81,71,32*5A,,,,,,
$GLGSV,9,5,31,77,36,310,22,85,42,41,26,86,64,153,30,87,10,194,18*55,,,,,,
$BDGSV,9,6,31,201,5,,,202,16,126,,203,7,110,,204,5,,*54,,,,,,
$BDGSV,9,7,31,205,28,164,14,206,5,,,207,21,97,,208,38,55,*67,,,,,,
$BDGSV,9,8,31,209,5,,,210,15,97,,211,57,177,28,212,28,48,*60,,,,,,
$BDGSV,9,9,31,213,32,57,,214,5,,*5B,,,,,,,,,,,,,,
$GPRMC,104928.00,A,5242.3753,N,04126.6586,E,1.283,0.000,50420,,E,A*19,,,,,,,,,,,,,
$GPGGA,104929.00,5242.3756,N,04126.6578,E,1,16,0.665,129.148,M,,M,0,*4B,,,,,,,,,,,
$GNGSA,A,3,2,6,12,17,19,24,25,28,32,67,68,75,76,77,85,87,,,,,1.180,0.665,0.975*27
$GPGSA,A,3,2,6,12,17,19,24,25,28,32,,,,,,,,,,,,1.180,0.665,0.975*37
$GLGSA,A,3,67,68,75,76,77,85,87,,,,,,,,,,,,,,1.180,0.665,0.975*26
$BDGSA,A,3,,,,,,,,,,,,,,,,,,,,,1.180,0.665,0.975*25
$QZGSA,A,3,,,,,,,,,,,,,,,,,,,,,1.180,0.665,0.975*28
$GPGSV,9,1,31,2,22,158,20,6,35,126,24,12,47,278,36,17,38,56,32*4B,,,,,,
$GPGSV,9,2,31,19,60,68,31,24,65,232,35,25,15,278,26,28,9,90,17*44,,,,,,
$GPGSV,9,3,31,32,16,321,33*47,,,,,,,,,,,,,,,,,,
$GLGSV,9,4,31,67,12,286,23,68,17,336,33,75,30,119,24,76,81,71,31*59,,,,,,
$GLGSV,9,5,31,77,36,310,21,85,42,41,28,86,64,153,31,87,10,194,19*58,,,,,,
$BDGSV,9,6,31,201,5,,,202,16,126,,203,7,110,,204,5,,*54,,,,,,
$BDGSV,9,7,31,205,28,164,14,206,5,,,207,21,97,,208,38,55,*67,,,,,,
$BDGSV,9,8,31,209,5,,,210,15,97,,211,57,177,27,212,28,48,*6F,,,,,,
$BDGSV,9,9,31,213,32,57,,214,5,,*5B,,,,,,,,,,,,,,
$GPRMC,104929.00,A,5242.3756,N,04126.6578,E,1.620,323.190,50420,,E,A*1B,,,,,,,,,,,,,
$GPGGA,104930.00,5242.3760,N,04126.6571,E,1,16,0.665,128.972,M,,M,0,*4F,,,,,,,,,,,
$GNGSA,A,3,2,6,12,17,19,24,25,28,32,67,68,75,76,77,85,87,,,,,1.180,0.665,0.975*27
$GPGSA,A,3,2,6,12,17,19,24,25,28,32,,,,,,,,,,,,1.180,0.665,0.975*37
$GLGSA,A,3,67,68,75,76,77,85,87,,,,,,,,,,,,,,1.180,0.665,0.975*26
$BDGSA,A,3,,,,,,,,,,,,,,,,,,,,,1.180,0.665,0.975*25
$QZGSA,A,3,,,,,,,,,,,,,,,,,,,,,1.180,0.665,0.975*28
$GPGSV,9,1,31,2,22,158,22,6,35,126,25,12,48,278,35,17,38,56,27*40,,,,,,
$GPGSV,9,2,31,19,60,68,30,24,65,232,35,25,15,278,30,28,9,90,17*42,,,,,,
$GPGSV,9,3,31,32,16,321,33*47,,,,,,,,,,,,,,,,,,
$GLGSV,9,4,31,67,12,286,21,68,17,336,34,75,30,119,24,76,81,71,30*5D,,,,,,
$GLGSV,9,5,31,77,36,310,22,85,42,41,24,86,64,153,31,87,10,194,19*57,,,,,,
$BDGSV,9,6,31,201,5,,,202,16,126,,203,7,110,,204,5,,*54,,,,,,
$BDGSV,9,7,31,205,28,164,14,206,5,,,207,21,97,,208,38,55,*67,,,,,,
$BDGSV,9,8,31,209,5,,,210,15,97,,211,57,177,26,212,28,48,*6E,,,,,,
$BDGSV,9,9,31,213,32,57,,214,5,,*5B,,,,,,,,,,,,,,
$GPRMC,104930.00,A,5242.3760,N,04126.6571,E,1.751,332.897,50420,,E,A*16,,,,,,,,,,,,,
$GPGGA,104931.00,5242.3765,N,04126.6566,E,1,16,0.665,128.727,M,,M,0,*43,,,,,,,,,,,
$GNGSA,A,3,2,6,12,17,19,24,25,28,32,67,68,75,76,77,85,87,,,,,1.180,0.665,0.975*27
$GPGSA,A,3,2,6,12,17,19,24,25,28,32,,,,,,,,,,,,1.180,0.665,0.975*37
$GLGSA,A,3,67,68,75,76,77,85,87,,,,,,,,,,,,,,1.180,0.665,0.975*26
$BDGSA,A,3,,,,,,,,,,,,,,,,,,,,,1.180,0.665,0.975*25
$QZGSA,A,3,,,,,,,,,,,,,,,,,,,,,1.180,0.665,0.975*28
$GPGSV,9,1,31,2,22,158,23,6,35,126,25,12,48,278,34,17,38,56,25*42,,,,,,
$GPGSV,9,2,31,19,60,68,30,24,65,232,33,25,15,278,22,28,9,90,16*46,,,,,,
$GPGSV,9,3,31,32,16,321,31*45,,,,,,,,,,,,,,,,,,
$GLGSV,9,4,31,67,12,286,19,68,17,336,36,75,30,119,26,76,81,71,32*54,,,,,,
$GLGSV,9,5,31,77,36,310,26,85,42,41,23,86,64,152,31,87,10,194,19*55,,,,,,
$BDGSV,9,6,31,201,5,,,202,16,126,,203,7,110,,204,5,,*54,,,,,,
$BDGSV,9,7,31,205,28,164,14,206,5,,,207,21,97,,208,38,55,*67,,,,,,
$BDGSV,9,8,31,209,5,,,210,15,97,,211,57,177,27,212,28,48,*6F,,,,,,
$BDGSV,9,9,31,213,32,57,,214,5,,*5B,,,,,,,,,,,,,,
$GPRMC,104931.00,A,5242.3765,N,04126.6566,E,1.663,334.093,50420,,E,A*1E,,,,,,,,,,,,,
$GPGGA,104932.00,5242.3772,N,04126.6563,E,1,16,0.665,128.460,M,,M,0,*43,,,,,,,,,,,
$GNGSA,A,3,2,6,12,17,19,24,25,28,32,67,68,75,76,77,85,87,,,,,1.180,0.665,0.975*27
$GPGSA,A,3,2,6,12,17,19,24,25,28,32,,,,,,,,,,,,1.180,0.665,0.975*37
$GLGSA,A,3,67,68,75,76,77,85,87,,,,,,,,,,,,,,1.180,0.665,0.975*26
$BDGSA,A,3,,,,,,,,,,,,,,,,,,,,,1.180,0.665,0.975*25
$QZGSA,A,3,,,,,,,,,,,,,,,,,,,,,1.180,0.665,0.975*28
$GPGSV,9,1,31,2,22,158,21,6,35,126,27,12,48,278,30,17,38,56,23*40,,,,,,
$GPGSV,9,2,31,19,60,68,29,24,65,232,33,25,15,278,19,28,9,90,15*45,,,,,,
$GPGSV,9,3,31,32,16,321,32*46,,,,,,,,,,,,,,,,,,
$GLGSV,9,4,31,67,12,286,22,68,17,336,33,75,30,119,27,76,81,71,30*5A,,,,,,
$GLGSV,9,5,31,77,36,310,26,85,42,41,24,86,64,152,29,87,10,194,22*53,,,,,,
$BDGSV,9,6,31,201,5,,,202,16,126,,203,7,110,,204,5,,*54,,,,,,
$BDGSV,9,7,31,205,28,164,12,206,5,,,207,21,97,,208,38,55,*61,,,,,,
$BDGSV,9,8,31,209,5,,,210,15,97,,211,57,177,27,212,28,48,*6F,,,,,,
$BDGSV,9,9,31,213,32,57,,214,5,,*5B,,,,,,,,,,,,,,
$GPRMC,104932.00,A,5242.3772,N,04126.6563,E,2.548,356.511,50420,,E,A*1C,,,,,,,,,,,,,
$GPGGA,104933.00,5242.3779,N,04126.6559,E,1,16,0.665,128.230,M,,M,0,*43,,,,,,,,,,,
$GNGSA,A,3,2,6,12,17,19,24,25,28,32,67,68,75,76,77,85,87,,,,,1.180,0.665,0.975*27
$GPGSA,A,3,2,6,12,17,19,24,25,28,32,,,,,,,,,,,,1.180,0.665,0.975*37
$GLGSA,A,3,67,68,75,76,77,85,87,,,,,,,,,,,,,,1.180,0.665,0.975*26
$BDGSA,A,3,,,,,,,,,,,,,,,,,,,,,1.180,0.665,0.975*25
$QZGSA,A,3,,,,,,,,,,,,,,,,,,,,,1.180,0.665,0.975*28
$GPGSV,9,1,31,2,22,158,25,6,35,126,26,12,48,278,36,17,38,56,21*41,,,,,,
$GPGSV,9,2,31,19,60,68,32,24,65,232,35,25,15,278,20,28,9,90,16*40,,,,,,
$GPGSV,9,3,31,32,16,321,31*45,,,,,,,,,,,,,,,,,,
$GLGSV,9,4,31,67,12,286,20,68,17,336,30,75,30,119,25,76,81,71,32*5B,,,,,,
$GLGSV,9,5,31,77,36,310,28,85,42,41,23,86,64,152,29,87,10,194,20*58,,,,,,
$BDGSV,9,6,31,201,5,,,202,16,126,,203,7,110,,204,5,,*54,,,,,,
$BDGSV,9,7,31,205,28,164,12,206,5,,,207,21,97,,208,38,55,*61,,,,,,
$BDGSV,9,8,31,209,5,,,210,15,97,,211,57,177,25,212,28,48,*6D,,,,,,
$BDGSV,9,9,31,213,32,57,,214,5,,*5B,,,,,,,,,,,,,,
$GPRMC,104933.00,A,5242.3779,N,04126.6559,E,1.609,350.335,50420,,E,A*1C,,,,,,,,,,,,,
$GPGGA,104934.00,5242.3784,N,04126.6555,E,1,16,0.665,128.043,M,,M,0,*4C,,,,,,,,,,,
$GNGSA,A,3,2,6,12,17,19,24,25,28,32,67,68,75,76,77,85,87,,,,,1.180,0.665,0.975*27
$GPGSA,A,3,2,6,12,17,19,24,25,28,32,,,,,,,,,,,,1.180,0.665,0.975*37
$GLGSA,A,3,67,68,75,76,77,85,87,,,,,,,,,,,,,,1.180,0.665,0.975*26
$BDGSA,A,3,,,,,,,,,,,,,,,,,,,,,1.180,0.665,0.975*25
$QZGSA,A,3,,,,,,,,,,,,,,,,,,,,,1.180,0.665,0.975*28
$GPGSV,9,1,31,2,22,158,23,6,35,126,29,12,48,278,35,17,38,56,22*48,,,,,,
$GPGSV,9,2,31,19,60,68,30,24,65,232,35,25,15,278,18,28,9,90,15*4A,,,,,,
$GPGSV,9,3,31,32,16,321,33*47,,,,,,,,,,,,,,,,,,
$GLGSV,9,4,31,67,12,286,20,68,17,336,28,75,30,119,22,76,81,72,31*55,,,,,,
$GLGSV,9,5,31,77,36,310,26,85,42,41,24,86,64,152,31,87,10,194,20*58,,,,,,
$BDGSV,9,6,31,201,5,,,202,16,126,,203,7,110,,204,5,,*54,,,,,,
$BDGSV,9,7,31,205,28,164,14,206,5,,,207,21,97,,208,38,55,*67,,,,,,
$BDGSV,9,8,31,209,5,,,210,15,97,,211,57,177,27,212,28,48,*6F,,,,,,
$BDGSV,9,9,31,213,32,57,,214,5,,*5B,,,,,,,,,,,,,,
$GPRMC,104934.00,A,5242.3784,N,04126.6555,E,1.048,344.830,50420,,E,A*1D,,,,,,,,,,,,,
$GPGGA,104935.00,5242.3788,N,04126.6551,E,1,16,0.665,127.960,M,,M,0,*42,,,,,,,,,,,
$GNGSA,A,3,2,6,12,17,19,24,25,28,32,67,68,75,76,77,85,87,,,,,1.180,0.665,0.975*27
$GPGSA,A,3,2,6,12,17,19,24,25,28,32,,,,,,,,,,,,1.180,0.665,0.975*37
$GLGSA,A,3,67,68,75,76,77,85,87,,,,,,,,,,,,,,1.180,0.665,0.975*26
$BDGSA,A,3,,,,,,,,,,,,,,,,,,,,,1.180,0.665,0.975*25
$QZGSA,A,3,,,,,,,,,,,,,,,,,,,,,1.180,0.665,0.975*28
$GPGSV,9,1,31,2,22,158,22,6,35,126,28,12,48,278,37,17,38,56,25*4D,,,,,,
$GPGSV,9,2,31,19,60,68,31,24,65,232,35,25,15,278,20,28,9,90,16*43,,,,,,
$GPGSV,9,3,31,32,16,321,32*46,,,,,,,,,,,,,,,,,,
$GLGSV,9,4,31,67,12,286,21,68,17,336,25,75,30,119,27,76,81,72,32*5F,,,,,,
$GLGSV,9,5,31,77,36,310,26,85,42,41,27,86,64,152,30,87,10,194,18*51,,,,,,
$BDGSV,9,6,31,201,5,,,202,16,126,,203,7,110,,204,5,,*54,,,,,,
$BDGSV,9,7,31,205,28,164,14,206,5,,,207,21,97,,208,38,55,*67,,,,,,
$BDGSV,9,8,31,209,5,,,210,15,97,,211,57,177,28,212,28,48,*60,,,,,,
$BDGSV,9,9,31,213,32,57,,214,5,,*5B,,,,,,,,,,,,,,
$GPRMC,104935.00,A,5242.3788,N,04126.6551,E,1.208,7.785,50420,,E,A*17,,,,,,,,,,,,,
$GPGGA,104936.00,5242.3791,N,04126.6548,E,1,16,0.665,128.105,M,,M,0,*45,,,,,,,,,,,
$GNGSA,A,3,2,6,12,17,19,24,25,28,32,67,68,75,76,77,85,87,,,,,1.180,0.665,0.975*27
$GPGSA,A,3,2,6,12,17,19,24,25,28,32,,,,,,,,,,,,1.180,0.665,0.975*37
$GLGSA,A,3,67,68,75,76,77,85,87,,,,,,,,,,,,,,1.180,0.665,0.975*26
$BDGSA,A,3,,,,,,,,,,,,,,,,,,,,,1.180,0.665,0.975*25
$QZGSA,A,3,,,,,,,,,,,,,,,,,,,,,1.180,0.665,0.975*28
$GPGSV,9,1,31,2,22,158,22,6,35,126,29,12,48,278,33,17,38,56,24*49,,,,,,
$GPGSV,9,2,31,19,60,68,30,24,65,232,34,25,15,278,19,28,9,90,16*49,,,,,,
$GPGSV,9,3,31,32,16,321,27*42,,,,,,,,,,,,,,,,,,
$GLGSV,9,4,31,67,12,286,22,68,17,336,26,75,30,119,28,76,81,72,31*53,,,,,,
$GLGSV,9,5,31,77,36,310,24,85,42,41,29,86,64,152,30,87,10,194,19*5C,,,,,,
$BDGSV,9,6,31,201,5,,,202,16,126,,203,7,110,,204,5,,*54,,,,,,
$BDGSV,9,7,31,205,28,164,15,206,5,,,207,21,97,,208,38,55,*66,,,,,,
$BDGSV,9,8,31,209,5,,,210,15,97,,211,57,177,26,212,28,48,*6E,,,,,,
$BDGSV,9,9,31,213,32,57,,214,5,,*5B,,,,,,,,,,,,,,
$GPRMC,104936.00,A,5242.3791,N,04126.6548,E,0.000,0.000,50420,,E,A*12,,,,,,,,,,,,,
$GPGGA,104937.00,5242.3793,N,04126.6546,E,1,16,0.665,128.242,M,,M,0,*48,,,,,,,,,,,
$GNGSA,A,3,2,6,12,17,19,24,25,28,32,67,68,75,76,77,85,87,,,,,1.180,0.665,0.975*27
$GPGSA,A,3,2,6,12,17,19,24,25,28,32,,,,,,,,,,,,1.180,0.665,0.975*37
