$GPGGA,205250.75,5242.3734,N,04126.6890,E,0,,100.000,133.723,M,,M,0,*43
$GNGSA,A,1,,,,,,,,,,,,,,,,,,,,,100.000,100.000,100.000*2F
$GPGSA,A,1,,,,,,,,,,,,,,,,,,,,,100.000,100.000,100.000*31
$GLGSA,A,1,,,,,,,,,,,,,,,,,,,,,100.000,100.000,100.000*2D
$BDGSA,A,1,,,,,,,,,,,,,,,,,,,,,100.000,100.000,100.000*20
$QZGSA,A,1,,,,,,,,,,,,,,,,,,,,,100.000,100.000,100.000*2D
$GPGSV,6,1,22,1,26,298,,8,47,238,,10,54,71,,11,53,285,*45
$GPGSV,6,2,22,14,40,170,,20,21,78,,22,17,256,,24,16,48,*7E
$GPGSV,6,3,22,27,31,198,,28,10,333,,32,58,143,*49
$GLGSV,6,4,22,66,35,44,,67,87,228,,68,31,225,,74,5,330,*68
$GLGSV,6,5,22,75,13,23,,81,18,153,,82,68,172,*60
$BDGSV,6,6,22,205,24,159,,206,42,59,,209,57,95,,213,11,120,*6C
$GPRMC,205250.75,V,5242.3734,N,04126.6890,E,0.000,0.000,040420,,E,N*07
$GPGGA,205251.75,5242.3734,N,04126.6890,E,0,,100.000,133.723,M,,M,0,*42
$GNGSA,A,1,,,,,,,,,,,,,,,,,,,,,100.000,100.000,100.000*2F
$GPGSA,A,1,,,,,,,,,,,,,,,,,,,,,100.000,100.000,100.000*31
$GLGSA,A,1,,,,,,,,,,,,,,,,,,,,,100.000,100.000,100.000*2D
$BDGSA,A,1,,,,,,,,,,,,,,,,,,,,,100.000,100.000,100.000*20
$QZGSA,A,1,,,,,,,,,,,,,,,,,,,,,100.000,100.000,100.000*2D
$GPGSV,6,1,22,1,26,298,,8,47,238,,10,54,71,,11,53,285,*45
$GPGSV,6,2,22,14,40,170,,20,21,78,,22,17,256,,24,16,48,*7E
$GPGSV,6,3,22,27,31,198,,28,10,333,,32,58,143,*49
$GLGSV,6,4,22,66,35,44,,67,87,228,,68,31,225,,74,5,330,*68
$GLGSV,6,5,22,75,13,23,,81,18,153,,82,68,172,*60
$BDGSV,6,6,22,205,24,159,,206,42,59,,209,57,95,,213,11,120,*6C
$GPRMC,205251.75,V,5242.3734,N,04126.6890,E,0.000,0.000,040420,,E,N*06
$GPGGA,205252.75,5242.3734,N,04126.6890,E,0,,100.000,133.723,M,,M,0,*41
$GNGSA,A,1,,,,,,,,,,,,,,,,,,,,,100.000,100.000,100.000*2F
$GPGSA,A,1,,,,,,,,,,,,,,,,,,,,,100.000,100.000,100.000*31
$GLGSA,A,1,,,,,,,,,,,,,,,,,,,,,100.000,100.000,100.000*2D
$BDGSA,A,1,,,,,,,,,,,,,,,,,,,,,100.000,100.000,100.000*20
$QZGSA,A,1,,,,,,,,,,,,,,,,,,,,,100.000,100.000,100.000*2D
$GPGSV,6,1,22,1,26,298,35,8,47,238,,10,54,71,36,11,53,285,34*41
$GPGSV,6,2,22,14,40,170,,20,21,78,,22,17,256,,24,16,48,27*7B
$GPGSV,6,3,22,27,31,198,,28,10,333,,32,58,143,*49
$GLGSV,6,4,22,66,35,44,,67,87,228,,68,31,225,,74,5,330,*68
$GLGSV,6,5,22,75,13,23,,81,18,153,,82,68,172,*60
$BDGSV,6,6,22,205,24,159,,206,42,59,,209,57,95,,213,11,120,*6C
$GPRMC,205252.75,V,5242.3734,N,04126.6890,E,0.000,0.000,040420,,E,N*05
$GPGGA,205254.06,5242.7052,N,04127.2730,E,1,7,4.749,152.645,M,,M,0,*7F
$GNGSA,A,3,1,10,11,24,66,67,75,,,,,,,,,,,,,,6.823,4.749,4.899*14
$GPGSA,A,3,1,10,11,24,,,,,,,,,,,,,,,,,6.823,4.749,4.899*09
$GLGSA,A,3,66,67,75,,,,,,,,,,,,,,,,,,6.823,4.749,4.899*20
$BDGSA,A,3,,,,,,,,,,,,,,,,,,,,,6.823,4.749,4.899*2E
$QZGSA,A,3,,,,,,,,,,,,,,,,,,,,,6.823,4.749,4.899*23
$GPGSV,6,1,22,1,26,298,34,8,47,238,,10,54,71,38,11,53,285,38*42
$GPGSV,6,2,22,14,40,170,,20,21,78,,22,17,256,,24,16,48,32*7F
$GPGSV,6,3,22,27,31,198,,28,10,333,,32,58,143,*49
$GLGSV,6,4,22,66,35,44,37,67,87,228,37,68,31,225,,74,5,330,*68
$GLGSV,6,5,22,75,13,23,36,81,18,153,,82,68,172,27*60
$BDGSV,6,6,22,205,28,158,,206,42,59,,209,57,95,,213,11,120,*61
$GPRMC,205254.06,A,5242.7052,N,04127.2730,E,4.245,0.000,040420,,E,A*1B
$GPGGA,205254.26,5242.7134,N,04127.2724,E,1,7,4.749,165.957,M,,M,0,*71
$GNGSA,A,3,1,10,11,24,66,67,75,,,,,,,,,,,,,,6.823,4.749,4.899*14
$GPGSA,A,3,1,10,11,24,,,,,,,,,,,,,,,,,6.823,4.749,4.899*09
$GLGSA,A,3,66,67,75,,,,,,,,,,,,,,,,,,6.823,4.749,4.899*20
$BDGSA,A,3,,,,,,,,,,,,,,,,,,,,,6.823,4.749,4.899*2E
$QZGSA,A,3,,,,,,,,,,,,,,,,,,,,,6.823,4.749,4.899*23
$GPGSV,6,1,22,1,26,298,34,8,47,238,,10,54,71,38,11,53,285,38*42
$GPGSV,6,2,22,14,40,170,,20,21,78,,22,17,256,,24,16,48,32*7F
$GPGSV,6,3,22,27,31,198,,28,10,333,,32,58,143,*49
$GLGSV,6,4,22,66,35,44,37,67,87,228,37,68,31,225,,74,5,330,22*68
$GLGSV,6,5,22,75,13,23,36,81,18,153,,82,68,172,26*61
$BDGSV,6,6,22,205,28,158,,206,42,59,,209,57,95,,213,11,120,*61
$GPRMC,205254.26,A,5242.7134,N,04127.2724,E,2.701,0.000,040420,,E,A*1E
$GPGGA,205255.26,5242.7027,N,04127.2721,E,1,8,2.447,148.636,M,,M,0,*75
$GNGSA,A,3,1,10,11,24,66,67,75,82,,,,,,,,,,,,,3.984,2.447,3.144*12
$GPGSA,A,3,1,10,11,24,,,,,,,,,,,,,,,,,3.984,2.447,3.144*05
$GLGSA,A,3,66,67,75,82,,,,,,,,,,,,,,,,,3.984,2.447,3.144*26
$BDGSA,A,3,,,,,,,,,,,,,,,,,,,,,3.984,2.447,3.144*22
$QZGSA,A,3,,,,,,,,,,,,,,,,,,,,,3.984,2.447,3.144*2F
$GPGSV,6,1,22,1,26,298,36,8,47,238,,10,54,71,40,11,53,285,38*4F
$GPGSV,6,2,22,14,40,170,,20,21,78,,22,17,256,,24,16,48,34*79
$GPGSV,6,3,22,27,31,198,,28,10,333,,32,58,143,*49
$GLGSV,6,4,22,66,35,44,32,67,87,228,37,68,31,225,22,74,5,330,26*69
$GLGSV,6,5,22,75,13,23,34,81,18,153,23,82,68,172,27*63
$BDGSV,6,6,22,205,28,158,,206,42,59,,209,57,95,,213,11,120,*61
$GPRMC,205255.26,A,5242.7027,N,04127.2721,E,2.175,0.000,040420,,E,A*1C
$GPGGA,205256.26,5242.6935,N,04127.2712,E,1,13,0.781,130.317,M,,M,0,*45
$GNGSA,A,3,1,8,10,11,24,28,66,67,68,74,75,81,82,,,,,,,,1.353,0.781,1.105*2A
$GPGSA,A,3,1,8,10,11,24,28,,,,,,,,,,,,,,,1.353,0.781,1.105*39
$GLGSA,A,3,66,67,68,74,75,81,82,,,,,,,,,,,,,,1.353,0.781,1.105*2C
$BDGSA,A,3,,,,,,,,,,,,,,,,,,,,,1.353,0.781,1.105*2C
$QZGSA,A,3,,,,,,,,,,,,,,,,,,,,,1.353,0.781,1.105*21
$GPGSV,6,1,22,1,26,298,33,8,47,238,33,10,54,71,39,11,53,285,39*45
$GPGSV,6,2,22,14,40,170,,20,21,78,,22,17,256,22,24,16,48,37*7A
$GPGSV,6,3,22,27,31,198,,28,10,333,29,32,58,143,*42
$GLGSV,6,4,22,66,35,44,36,67,87,228,38,68,31,225,29,74,5,330,27*68
$GLGSV,6,5,22,75,13,23,39,81,18,153,21,82,68,172,28*63
$BDGSV,6,6,22,205,28,158,,206,42,59,,209,57,95,,213,11,120,*61
$GPRMC,205256.26,A,5242.6935,N,04127.2712,E,2.015,0.000,040420,,E,A*13
$GPGGA,205257.00,5242.6972,N,04127.2770,E,1,13,0.846,132.474,M,,M,0,*43
$GNGSA,A,3,1,8,10,11,24,28,66,67,68,74,75,81,82,,,,,,,,1.435,0.846,1.159*20
$GPGSA,A,3,1,8,10,11,24,28,,,,,,,,,,,,,,,1.435,0.846,1.159*33
$GLGSA,A,3,66,67,68,74,75,81,82,,,,,,,,,,,,,,1.435,0.846,1.159*26
$BDGSA,A,3,,,,,,,,,,,,,,,,,,,,,1.435,0.846,1.159*26
$QZGSA,A,3,,,,,,,,,,,,,,,,,,,,,1.435,0.846,1.159*2B
$GPGSV,6,1,22,1,26,298,33,8,47,238,33,10,54,71,39,11,53,285,37*4B
$GPGSV,6,2,22,14,40,170,,20,21,78,,22,17,256,26,24,16,48,39*70
$GPGSV,6,3,22,27,31,198,,28,10,333,29,32,58,143,27*47
$GLGSV,6,4,22,66,35,44,41,67,87,228,37,68,31,225,29,74,5,330,27*67
$GLGSV,6,5,22,75,13,23,41,81,18,153,21,82,68,172,28*6C
$BDGSV,6,6,22,205,28,158,,206,42,59,,209,57,95,30,213,11,120,*62
$GPRMC,205257.00,A,5242.6972,N,04127.2770,E,2.086,0.000,040420,,E,A*1B
$GPGGA,205258.00,5242.6962,N,04127.2672,E,1,14,0.761,132.240,M,,M,0,*42
$GNGSA,A,3,1,8,10,11,24,28,32,206,209,67,68,74,75,81,,,,,,,1.329,0.761,1.090*20
$GPGSA,A,3,1,8,10,11,24,28,32,,,,,,,,,,,,,,1.329,0.761,1.090*36
$GLGSA,A,3,67,68,74,75,81,,,,,,,,,,,,,,,,1.329,0.761,1.090*28
$BDGSA,A,3,206,209,,,,,,,,,,,,,,,,,,,1.329,0.761,1.090*2D
$QZGSA,A,3,,,,,,,,,,,,,,,,,,,,,1.329,0.761,1.090*2F
$GPGSV,6,1,22,1,26,298,31,8,47,238,38,10,54,71,39,11,53,285,36*43
$GPGSV,6,2,22,14,40,170,,20,21,78,,22,17,256,29,24,16,48,40*71
$GPGSV,6,3,22,27,31,198,,28,10,333,30,32,58,143,27*4F
$GLGSV,6,4,22,66,35,44,39,67,87,228,31,68,31,225,34,74,5,330,33*67
$GLGSV,6,5,22,75,13,23,35,81,18,153,23,82,68,172,29*6C
$BDGSV,6,6,22,205,28,158,,206,42,59,30,209,57,95,30,213,11,120,*61
$GPRMC,205258.00,A,5242.6962,N,04127.2672,E,1.714,0.000,040420,,E,A*19
$GPGGA,205259.00,5242.6963,N,04127.2666,E,1,14,0.761,133.393,M,,M,0,*49
$GNGSA,A,3,1,8,10,11,24,28,32,206,209,67,68,74,75,81,,,,,,,1.329,0.761,1.090*20
$GPGSA,A,3,1,8,10,11,24,28,32,,,,,,,,,,,,,,1.329,0.761,1.090*36
$GLGSA,A,3,67,68,74,75,81,,,,,,,,,,,,,,,,1.329,0.761,1.090*28
$BDGSA,A,3,206,209,,,,,,,,,,,,,,,,,,,1.329,0.761,1.090*2D
$QZGSA,A,3,,,,,,,,,,,,,,,,,,,,,1.329,0.761,1.090*2F
$GPGSV,6,1,22,1,26,298,33,8,47,238,37,10,54,71,40,11,53,285,36*40
$GPGSV,6,2,22,14,40,170,29,20,21,78,23,22,17,256,29,24,16,48,38*74
$GPGSV,6,3,22,27,31,198,30,28,10,333,31,32,58,143,28*42
$GLGSV,6,4,22,66,35,44,39,67,87,228,33,68,31,225,37,74,5,330,37*62
$GLGSV,6,5,22,75,13,23,32,81,18,153,20,82,68,172,33*63
$BDGSV,6,6,22,205,28,158,,206,42,59,29,209,57,95,29,213,11,120,*61
$GPRMC,205259.00,A,5242.6963,N,04127.2666,E,1.466,0.000,040420,,E,A*1A
$GPGGA,205300.00,5242.6958,N,04127.2669,E,1,17,0.654,134.037,M,,M,0,*4D
$GNGSA,A,3,1,8,10,11,14,20,24,27,28,32,206,209,67,68,74,75,81,,,,1.218,0.654,1.028*25
$GPGSA,A,3,1,8,10,11,14,20,24,27,28,32,,,,,,,,,,,1.218,0.654,1.028*33
$GLGSA,A,3,67,68,74,75,81,,,,,,,,,,,,,,,,1.218,0.654,1.028*2F
$BDGSA,A,3,206,209,,,,,,,,,,,,,,,,,,,1.218,0.654,1.028*2A
$QZGSA,A,3,,,,,,,,,,,,,,,,,,,,,1.218,0.654,1.028*28
$GPGSV,7,1,24,1,26,298,34,8,47,238,36,10,54,71,40,11,53,285,34*43
$GPGSV,7,2,24,14,40,170,29,20,21,78,25,22,17,256,26,24,16,48,37*75
$GPGSV,7,3,24,27,31,198,32,28,10,333,33,32,58,143,32*4E
$GLGSV,7,4,24,66,35,44,41,67,87,228,32,68,31,225,34,74,5,330,32*6D
$GLGSV,7,5,24,75,13,23,33,81,18,153,23,82,68,172,32,83,54,315,*5A
$BDGSV,7,6,24,202,18,129,,205,28,158,,206,42,59,30,209,57,95,32*64
$BDGSV,7,7,24,213,11,120,*6D
$GPRMC,205300.00,A,5242.6958,N,04127.2669,E,1.475,0.000,040420,,E,A*12
$GPGGA,205301.00,5242.6949,N,04127.2670,E,1,17,0.654,133.077,M,,M,0,*47
$GNGSA,A,3,1,8,10,11,14,20,24,27,28,32,206,209,67,68,74,75,81,,,,1.218,0.654,1.027*2A
$GPGSA,A,3,1,8,10,11,14,20,24,27,28,32,,,,,,,,,,,1.218,0.654,1.027*3C
$GLGSA,A,3,67,68,74,75,81,,,,,,,,,,,,,,,,1.218,0.654,1.027*20
$BDGSA,A,3,206,209,,,,,,,,,,,,,,,,,,,1.218,0.654,1.027*25
$QZGSA,A,3,,,,,,,,,,,,,,,,,,,,,1.218,0.654,1.027*27
$GPGSV,7,1,24,1,26,298,34,8,47,238,38,10,54,71,39,11,53,285,39*4E
$GPGSV,7,2,24,14,40,170,31,20,21,78,29,22,17,256,26,24,16,48,38*7F
$GPGSV,7,3,24,27,31,198,35,28,10,333,33,32,58,143,31*4A
$GLGSV,7,4,24,66,35,44,39,67,87,228,33,68,31,225,27,74,5,330,32*61
$GLGSV,7,5,24,75,13,23,29,81,18,153,22,82,68,172,33,83,54,315,*51
$BDGSV,7,6,24,202,18,129,,205,28,158,,206,42,59,29,209,57,95,32*6C
$BDGSV,7,7,24,213,11,120,*6D
$GPRMC,205301.00,A,5242.6949,N,04127.2670,E,1.490,0.000,040420,,E,A*10
$GPGGA,205302.00,5242.6945,N,04127.2669,E,1,18,0.628,133.005,M,,M,0,*41
$GNGSA,A,3,1,8,10,11,14,20,22,24,27,28,32,206,209,67,68,74,75,81,,,1.179,0.628,0.998*29
$GPGSA,A,3,1,8,10,11,14,20,22,24,27,28,32,,,,,,,,,,1.179,0.628,0.998*3F
$GLGSA,A,3,67,68,74,75,81,,,,,,,,,,,,,,,,1.179,0.628,0.998*23
$BDGSA,A,3,206,209,,,,,,,,,,,,,,,,,,,1.179,0.628,0.998*26
$QZGSA,A,3,,,,,,,,,,,,,,,,,,,,,1.179,0.628,0.998*24
$GPGSV,7,1,24,1,26,298,30,8,47,238,38,10,54,71,38,11,53,285,39*4B
$GPGSV,7,2,24,14,40,170,29,20,21,78,28,22,17,256,28,24,16,48,36*77
$GPGSV,7,3,24,27,31,198,27,28,10,333,33,32,58,143,35*4D
$GLGSV,7,4,24,66,35,44,39,67,87,228,34,68,31,225,27,74,5,330,31*65
$GLGSV,7,5,24,75,13,23,32,81,18,153,21,82,68,172,33,83,54,315,24*5E
$BDGSV,7,6,24,202,18,129,,205,28,158,,206,42,59,31,209,57,95,30*67
$BDGSV,7,7,24,213,11,120,*6D
$GPRMC,205302.00,A,5242.6945,N,04127.2669,E,0.000,0.000,040420,,E,A*1B
$GPGGA,205303.00,5242.6945,N,04127.2667,E,1,18,0.628,133.437,M,,M,0,*4B
$GNGSA,A,3,1,8,10,11,14,20,22,24,27,28,32,206,209,67,68,74,75,81,,,1.179,0.628,0.998*29
$GPGSA,A,3,1,8,10,11,14,20,22,24,27,28,32,,,,,,,,,,1.179,0.628,0.998*3F
$GLGSA,A,3,67,68,74,75,81,,,,,,,,,,,,,,,,1.179,0.628,0.998*23
$BDGSA,A,3,206,209,,,,,,,,,,,,,,,,,,,1.179,0.628,0.998*26
$QZGSA,A,3,,,,,,,,,,,,,,,,,,,,,1.179,0.628,0.998*24
$GPGSV,7,1,24,1,26,298,33,8,47,238,36,10,54,71,36,11,53,285,37*46
$GPGSV,7,2,24,14,40,170,28,20,21,78,27,22,17,256,31,24,16,48,32*75
$GPGSV,7,3,24,27,31,198,24,28,10,333,28,32,58,143,35*44
$GLGSV,7,4,24,66,35,44,36,67,87,228,31,68,31,225,26,74,5,330,26*68
$GLGSV,7,5,24,75,13,23,34,81,18,153,23,82,68,172,35,83,54,315,24*5C
$BDGSV,7,6,24,202,18,129,,205,28,158,,206,42,59,30,209,57,95,31*67
$BDGSV,7,7,24,213,11,120,*6D
$GPRMC,205303.00,A,5242.6945,N,04127.2667,E,1.788,0.000,040420,,E,A*12
$GPGGA,205304.00,5242.6947,N,04127.2662,E,1,18,0.628,134.386,M,,M,0,*41
$GNGSA,A,3,1,8,10,11,14,20,22,24,27,28,32,206,209,67,68,74,75,81,,,1.179,0.628,0.998*29
$GPGSA,A,3,1,8,10,11,14,20,22,24,27,28,32,,,,,,,,,,1.179,0.628,0.998*3F
$GLGSA,A,3,67,68,74,75,81,,,,,,,,,,,,,,,,1.179,0.628,0.998*23
$BDGSA,A,3,206,209,,,,,,,,,,,,,,,,,,,1.179,0.628,0.998*26
$QZGSA,A,3,,,,,,,,,,,,,,,,,,,,,1.179,0.628,0.998*24
$GPGSV,7,1,24,1,26,298,31,8,47,238,36,10,54,71,41,11,53,285,39*4A
$GPGSV,7,2,24,14,40,170,23,20,21,78,27,22,18,256,34,24,16,48,28*7F
$GPGSV,7,3,24,27,31,198,24,28,10,333,30,32,58,143,32*4A
$GLGSV,7,4,24,66,35,44,36,67,87,229,29,68,31,225,26,74,5,330,30*67
$GLGSV,7,5,24,75,13,23,38,81,18,153,26,82,68,172,33,83,54,315,22*55
$BDGSV,7,6,24,202,18,129,,205,28,158,,206,42,59,29,209,57,95,31*6F
$BDGSV,7,7,24,213,11,120,*6D
$GPRMC,205304.00,A,5242.6947,N,04127.2662,E,1.917,0.000,040420,,E,A*1A
$GPGGA,205305.00,5242.6947,N,04127.2657,E,1,18,0.628,134.793,M,,M,0,*46
$GNGSA,A,3,1,8,10,11,14,20,22,24,27,28,32,206,209,67,68,74,75,81,,,1.179,0.628,0.998*29
$GPGSA,A,3,1,8,10,11,14,20,22,24,27,28,32,,,,,,,,,,1.179,0.628,0.998*3F
$GLGSA,A,3,67,68,74,75,81,,,,,,,,,,,,,,,,1.179,0.628,0.998*23
$BDGSA,A,3,206,209,,,,,,,,,,,,,,,,,,,1.179,0.628,0.998*26
$QZGSA,A,3,,,,,,,,,,,,,,,,,,,,,1.179,0.628,0.998*24
$GPGSV,7,1,24,1,26,298,29,8,47,238,33,10,54,71,42,11,53,285,43*48
$GPGSV,7,2,24,14,40,170,25,20,21,78,30,22,18,256,31,24,16,48,25*77
$GPGSV,7,3,24,27,31,198,22,28,10,333,27,32,58,143,29*40
$GLGSV,7,4,24,66,35,44,39,67,87,229,30,68,31,225,24,74,5,330,29*6A
$GLGSV,7,5,24,75,13,23,35,81,18,153,24,82,68,172,32,83,54,315,21*58
$BDGSV,7,6,24,202,18,129,,205,28,158,,206,42,59,27,209,57,95,30*60
$BDGSV,7,7,24,213,11,120,*6D
$GPRMC,205305.00,A,5242.6947,N,04127.2657,E,1.970,272.725,040420,,E,A*1B
$GPGGA,205306.00,5242.6948,N,04127.2650,E,1,18,0.628,134.987,M,,M,0,*46
$GNGSA,A,3,1,8,10,11,14,20,22,24,27,28,32,206,209,67,68,74,75,81,,,1.179,0.628,0.998*29
$GPGSA,A,3,1,8,10,11,14,20,22,24,27,28,32,,,,,,,,,,1.179,0.628,0.998*3F
$GLGSA,A,3,67,68,74,75,81,,,,,,,,,,,,,,,,1.179,0.628,0.998*23
$BDGSA,A,3,206,209,,,,,,,,,,,,,,,,,,,1.179,0.628,0.998*26
$QZGSA,A,3,,,,,,,,,,,,,,,,,,,,,1.179,0.628,0.998*24
$GPGSV,7,1,24,1,26,298,32,8,47,238,34,10,54,71,40,11,53,285,41*45
$GPGSV,7,2,24,14,40,170,25,20,21,78,26,22,18,256,30,24,16,48,26*72
$GPGSV,7,3,24,27,31,198,25,28,10,333,29,32,58,143,29*49
$GLGSV,7,4,24,66,35,44,43,67,87,229,33,68,31,225,24,74,5,330,23*6E
$GLGSV,7,5,24,75,13,23,36,81,18,153,23,82,68,172,31,83,54,315,25*5B
$BDGSV,7,6,24,202,18,129,,205,28,158,,206,42,59,29,209,57,95,29*66
$BDGSV,7,7,24,213,11,120,*6D
$GPRMC,205306.00,A,5242.6948,N,04127.2650,E,2.210,272.854,040420,,E,A*17
$GPGGA,205307.00,5242.6949,N,04127.2641,E,1,18,0.628,135.073,M,,M,0,*45
$GNGSA,A,3,1,8,10,11,14,20,22,24,27,28,32,206,209,67,68,74,75,81,,,1.179,0.628,0.998*29
$GPGSA,A,3,1,8,10,11,14,20,22,24,27,28,32,,,,,,,,,,1.179,0.628,0.998*3F
$GLGSA,A,3,67,68,74,75,81,,,,,,,,,,,,,,,,1.179,0.628,0.998*23
$BDGSA,A,3,206,209,,,,,,,,,,,,,,,,,,,1.179,0.628,0.998*26
$QZGSA,A,3,,,,,,,,,,,,,,,,,,,,,1.179,0.628,0.998*24
$GPGSV,7,1,24,1,26,298,31,8,47,238,33,10,54,71,38,11,53,285,35*4D
$GPGSV,7,2,24,14,40,170,23,20,21,78,26,22,18,256,27,24,16,48,28*7C
$GPGSV,7,3,24,27,31,198,23,28,10,333,30,32,58,143,27*49
$GLGSV,7,4,24,66,35,44,37,67,87,229,33,68,31,225,22,74,5,330,27*6F
$GLGSV,7,5,24,75,13,23,41,81,18,153,22,82,68,172,30,83,54,315,25*5B
$BDGSV,7,6,24,202,18,129,,205,28,158,,206,42,59,29,209,57,95,31*6F
$BDGSV,7,7,24,213,11,120,*6D
$GPRMC,205307.00,A,5242.6949,N,04127.2641,E,2.052,273.210,040420,,E,A*18
$GPGGA,205308.00,5242.6949,N,04127.2634,E,1,18,0.628,135.551,M,,M,0,*4D
$GNGSA,A,3,1,8,10,11,14,20,22,24,27,28,32,206,209,67,68,74,75,81,,,1.179,0.628,0.998*29
$GPGSA,A,3,1,8,10,11,14,20,22,24,27,28,32,,,,,,,,,,1.179,0.628,0.998*3F
$GLGSA,A,3,67,68,74,75,81,,,,,,,,,,,,,,,,1.179,0.628,0.998*23
$BDGSA,A,3,206,209,,,,,,,,,,,,,,,,,,,1.179,0.628,0.998*26
$QZGSA,A,3,,,,,,,,,,,,,,,,,,,,,1.179,0.628,0.998*24
$GPGSV,7,1,24,1,26,298,34,8,47,238,34,10,54,71,37,11,53,285,37*42
$GPGSV,7,2,24,14,40,170,25,20,21,78,30,22,18,256,27,24,16,48,29*7C
$GPGSV,7,3,24,27,31,198,24,28,10,333,29,32,58,143,28*49
$GLGSV,7,4,24,66,35,44,34,67,87,229,34,68,32,225,27,74,5,330,26*6C
$GLGSV,7,5,24,75,13,23,35,81,18,153,23,82,68,172,32,83,54,315,25*5B
$BDGSV,7,6,24,202,18,129,,205,28,158,,206,42,59,31,209,57,95,30*67
$BDGSV,7,7,24,213,11,120,*6D
$GPRMC,205308.00,A,5242.6949,N,04127.2634,E,1.758,269.793,040420,,E,A*1E
$GPGGA,205309.00,5242.6948,N,04127.2625,E,1,18,0.628,136.087,M,,M,0,*40
$GNGSA,A,3,1,8,10,11,14,20,22,24,27,28,32,206,209,67,68,74,75,81,,,1.179,0.628,0.998*29
$GPGSA,A,3,1,8,10,11,14,20,22,24,27,28,32,,,,,,,,,,1.179,0.628,0.998*3F
$GLGSA,A,3,67,68,74,75,81,,,,,,,,,,,,,,,,1.179,0.628,0.998*23
$BDGSA,A,3,206,209,,,,,,,,,,,,,,,,,,,1.179,0.628,0.998*26
$QZGSA,A,3,,,,,,,,,,,,,,,,,,,,,1.179,0.628,0.998*24
$GPGSV,7,1,24,1,26,298,32,8,47,238,32,10,54,71,40,11,53,285,36*43
$GPGSV,7,2,24,14,40,170,25,20,21,78,27,22,18,256,32,24,16,48,31*77
$GPGSV,7,3,24,27,31,198,21,28,10,333,31,32,58,143,29*44
$GLGSV,7,4,24,66,35,44,40,67,87,229,33,68,32,225,24,74,5,330,26*6B
$GLGSV,7,5,24,75,13,23,34,81,18,153,25,82,68,172,30,83,54,315,22*59
$BDGSV,7,6,24,202,18,129,,205,28,158,,206,42,59,30,209,57,95,30*66
$BDGSV,7,7,24,213,11,120,*6D
$GPRMC,205309.00,A,5242.6948,N,04127.2625,E,1.602,273.825,040420,,E,A*19
$GPGGA,205310.00,5242.6947,N,04127.2616,E,1,18,0.628,136.201,M,,M,0,*4B
$GNGSA,A,3,1,8,10,11,14,20,22,24,27,28,32,206,209,67,68,74,75,81,,,1.179,0.628,0.998*29
$GPGSA,A,3,1,8,10,11,14,20,22,24,27,28,32,,,,,,,,,,1.179,0.628,0.998*3F
$GLGSA,A,3,67,68,74,75,81,,,,,,,,,,,,,,,,1.179,0.628,0.998*23
$BDGSA,A,3,206,209,,,,,,,,,,,,,,,,,,,1.179,0.628,0.998*26
$QZGSA,A,3,,,,,,,,,,,,,,,,,,,,,1.179,0.628,0.998*24
$GPGSV,7,1,24,1,26,298,32,8,47,238,33,10,54,71,40,11,53,285,36*42
$GPGSV,7,2,24,14,40,170,25,20,21,78,24,22,18,256,31,24,16,48,31*77
$GPGSV,7,3,24,27,31,198,24,28,10,333,32,32,58,143,28*43
$GLGSV,7,4,24,66,35,44,38,67,87,229,34,68,32,225,24,74,5,330,27*62
$GLGSV,7,5,24,75,13,23,36,81,18,153,24,82,68,172,30,83,54,315,25*5D
$BDGSV,7,6,24,202,18,129,,205,28,158,,206,42,59,31,209,57,95,31*66
$BDGSV,7,7,24,213,11,120,*6D
$GPRMC,205310.00,A,5242.6947,N,04127.2616,E,2.290,265.820,040420,,E,A*10
$GPGGA,205311.00,5242.6945,N,04127.2606,E,1,18,0.628,136.380,M,,M,0,*41
$GNGSA,A,3,1,8,10,11,14,20,22,24,27,28,32,206,209,67,68,74,75,81,,,1.179,0.628,0.998*29
$GPGSA,A,3,1,8,10,11,14,20,22,24,27,28,32,,,,,,,,,,1.179,0.628,0.998*3F
$GLGSA,A,3,67,68,74,75,81,,,,,,,,,,,,,,,,1.179,0.628,0.998*23
$BDGSA,A,3,206,209,,,,,,,,,,,,,,,,,,,1.179,0.628,0.998*26
$QZGSA,A,3,,,,,,,,,,,,,,,,,,,,,1.179,0.628,0.998*24
$GPGSV,7,1,24,1,26,298,33,8,47,238,33,10,54,71,40,11,53,285,40*42
$GPGSV,7,2,24,14,40,170,27,20,21,78,26,22,18,256,31,24,16,48,30*76
$GPGSV,7,3,24,27,31,198,25,28,10,333,27,32,58,143,30*4F
$GLGSV,7,4,24,66,35,44,36,67,87,229,34,68,32,225,26,74,5,330,29*60
$GLGSV,7,5,24,75,13,23,39,81,18,153,24,82,68,172,29,83,54,315,24*5B
$BDGSV,7,6,24,202,18,129,,205,28,158,,206,42,59,31,209,57,95,32*65
$BDGSV,7,7,24,213,11,120,*6D
$GPRMC,205311.00,A,5242.6945,N,04127.2606,E,1.820,259.458,040420,,E,A*1C
$GPGGA,205312.00,5242.6946,N,04127.2597,E,1,18,0.628,137.184,M,,M,0,*4D
$GNGSA,A,3,1,8,10,11,14,20,22,24,27,28,32,206,209,67,68,74,75,81,,,1.179,0.628,0.997*26
$GPGSA,A,3,1,8,10,11,14,20,22,24,27,28,32,,,,,,,,,,1.179,0.628,0.997*30
$GLGSA,A,3,67,68,74,75,81,,,,,,,,,,,,,,,,1.179,0.628,0.997*2C
$BDGSA,A,3,206,209,,,,,,,,,,,,,,,,,,,1.179,0.628,0.997*29
$QZGSA,A,3,,,,,,,,,,,,,,,,,,,,,1.179,0.628,0.997*2B
$GPGSV,7,1,24,1,26,298,36,8,47,238,37,10,54,71,39,11,53,285,40*4D
$GPGSV,7,2,24,14,40,170,25,20,21,78,27,22,18,256,25,24,16,48,31*71
$GPGSV,7,3,24,27,31,198,28,28,10,333,30,32,58,143,30*44
$GLGSV,7,4,24,66,35,44,42,67,87,229,34,68,32,225,29,74,5,330,31*65
$GLGSV,7,5,24,75,13,23,39,81,18,153,22,82,68,172,31,83,54,315,24*54
$BDGSV,7,6,24,202,18,129,,205,28,158,,206,42,59,31,209,57,95,31*66
$BDGSV,7,7,24,213,11,120,*6D
$GPRMC,205312.00,A,5242.6946,N,04127.2597,E,1.482,268.080,040420,,E,A*10
$GPGGA,205313.00,5242.6949,N,04127.2587,E,1,18,0.628,138.627,M,,M,0,*43
$GNGSA,A,3,1,8,10,11,14,20,22,24,27,28,32,206,209,67,68,74,75,81,,,1.178,0.628,0.997*27
$GPGSA,A,3,1,8,10,11,14,20,22,24,27,28,32,,,,,,,,,,1.178,0.628,0.997*31
$GLGSA,A,3,67,68,74,75,81,,,,,,,,,,,,,,,,1.178,0.628,0.997*2D
$BDGSA,A,3,206,209,,,,,,,,,,,,,,,,,,,1.178,0.628,0.997*28
$QZGSA,A,3,,,,,,,,,,,,,,,,,,,,,1.178,0.628,0.997*2A
$GPGSV,7,1,24,1,26,298,32,8,47,238,34,10,54,71,38,11,53,285,42*49
$GPGSV,7,2,24,14,40,170,29,20,21,78,23,22,18,256,30,24,16,48,29*74
$GPGSV,7,3,24,27,31,198,36,28,10,333,30,32,58,143,29*43
$GLGSV,7,4,24,66,35,44,39,67,87,229,34,68,32,225,30,74,5,330,30*60
$GLGSV,7,5,24,75,13,23,35,81,18,153,25,82,68,172,31,83,54,315,23*58
$BDGSV,7,6,24,202,18,129,,205,28,158,,206,42,59,30,209,57,95,31*67
$BDGSV,7,7,24,213,11,120,*6D
$GPRMC,205313.00,A,5242.6949,N,04127.2587,E,2.530,281.398,040420,,E,A*19
$GPGGA,205314.00,5242.6950,N,04127.2577,E,1,18,0.628,139.145,M,,M,0,*41
$GNGSA,A,3,1,8,10,11,14,20,22,24,27,28,32,206,209,67,68,74,75,81,,,1.178,0.628,0.997*27
$GPGSA,A,3,1,8,10,11,14,20,22,24,27,28,32,,,,,,,,,,1.178,0.628,0.997*31
$GLGSA,A,3,67,68,74,75,81,,,,,,,,,,,,,,,,1.178,0.628,0.997*2D
$BDGSA,A,3,206,209,,,,,,,,,,,,,,,,,,,1.178,0.628,0.997*28
$QZGSA,A,3,,,,,,,,,,,,,,,,,,,,,1.178,0.628,0.997*2A
$GPGSV,7,1,24,1,26,298,29,8,47,238,37,10,54,71,38,11,53,285,40*42
$GPGSV,7,2,24,14,40,170,28,20,21,78,25,22,18,256,32,24,16,48,24*7C
$GPGSV,7,3,24,27,31,198,35,28,10,333,32,32,58,143,31*4B
$GLGSV,7,4,24,66,35,44,38,67,87,229,33,68,32,225,33,74,5,330,26*62
$GLGSV,7,5,24,75,13,23,37,81,18,153,26,82,68,172,31,83,54,315,26*5C
$BDGSV,7,6,24,202,18,129,,205,28,158,,206,42,59,31,209,57,95,30*67
$BDGSV,7,7,24,213,11,120,*6D
$GPRMC,205314.00,A,5242.6950,N,04127.2577,E,2.189,292.482,040420,,E,A*11
$GPGGA,205315.00,5242.6948,N,04127.2570,E,1,18,0.628,138.908,M,,M,0,*4E
$GNGSA,A,3,1,8,10,11,14,20,22,24,27,28,32,206,209,67,68,74,75,81,,,1.178,0.628,0.997*27
$GPGSA,A,3,1,8,10,11,14,20,22,24,27,28,32,,,,,,,,,,1.178,0.628,0.997*31
$GLGSA,A,3,67,68,74,75,81,,,,,,,,,,,,,,,,1.178,0.628,0.997*2D
$BDGSA,A,3,206,209,,,,,,,,,,,,,,,,,,,1.178,0.628,0.997*28
$QZGSA,A,3,,,,,,,,,,,,,,,,,,,,,1.178,0.628,0.997*2A
$GPGSV,7,1,24,1,26,298,31,8,47,238,37,10,54,71,39,11,53,285,41*4B
$GPGSV,7,2,24,14,40,170,32,20,21,78,28,22,18,256,33,24,16,48,26*79
$GPGSV,7,3,24,27,31,198,37,28,10,333,33,32,58,143,34*4D
$GLGSV,7,4,24,66,35,44,35,67,87,229,35,68,32,225,35,74,5,330,27*6E
$GLGSV,7,5,24,75,13,22,39,81,18,153,24,82,68,172,32,83,54,315,24*50
$BDGSV,7,6,24,202,18,129,,205,28,158,,206,42,59,31,209,57,95,30*67
$BDGSV,7,7,24,213,11,120,*6D
$GPRMC,205315.00,A,5242.6948,N,04127.2570,E,1.778,278.201,040420,,E,A*1C
$GPGGA,205316.00,5242.6947,N,04127.2561,E,1,18,0.628,139.113,M,,M,0,*41
$GNGSA,A,3,1,8,10,11,14,20,22,24,27,28,32,206,209,67,68,74,75,81,,,1.178,0.628,0.997*27
$GPGSA,A,3,1,8,10,11,14,20,22,24,27,28,32,,,,,,,,,,1.178,0.628,0.997*31
$GLGSA,A,3,67,68,74,75,81,,,,,,,,,,,,,,,,1.178,0.628,0.997*2D
$BDGSA,A,3,206,209,,,,,,,,,,,,,,,,,,,1.178,0.628,0.997*28
$QZGSA,A,3,,,,,,,,,,,,,,,,,,,,,1.178,0.628,0.997*2A
$GPGSV,7,1,24,1,26,298,26,8,47,238,38,10,54,71,38,11,53,285,38*4D
$GPGSV,7,2,24,14,40,170,33,20,21,78,28,22,18,256,33,24,16,48,30*7F
$GPGSV,7,3,24,27,31,198,35,28,10,333,35,32,58,143,33*4E
$GLGSV,7,4,24,66,35,44,41,67,87,230,35,68,32,225,28,74,5,330,26*68
$GLGSV,7,5,24,75,13,22,39,81,18,153,26,82,68,172,35,83,54,315,21*50
$BDGSV,7,6,24,202,18,129,,205,28,158,,206,42,59,29,209,57,95,25*6A
$BDGSV,7,7,24,213,11,120,*6D
$GPRMC,205316.00,A,5242.6947,N,04127.2561,E,2.184,283.080,040420,,E,A*19
$GPGGA,205317.00,5242.6946,N,04127.2554,E,1,18,0.628,138.857,M,,M,0,*4F
$GNGSA,A,3,1,8,10,11,14,20,22,24,27,28,32,206,209,67,68,74,75,81,,,1.178,0.628,0.997*27
$GPGSA,A,3,1,8,10,11,14,20,22,24,27,28,32,,,,,,,,,,1.178,0.628,0.997*31
$GLGSA,A,3,67,68,74,75,81,,,,,,,,,,,,,,,,1.178,0.628,0.997*2D
$BDGSA,A,3,206,209,,,,,,,,,,,,,,,,,,,1.178,0.628,0.997*28
$QZGSA,A,3,,,,,,,,,,,,,,,,,,,,,1.178,0.628,0.997*2A
$GPGSV,7,1,24,1,26,298,30,8,47,238,32,10,54,71,38,11,53,285,40*4F
$GPGSV,7,2,24,14,40,170,31,20,21,78,26,22,18,256,35,24,16,48,35*70
$GPGSV,7,3,24,27,31,198,30,28,10,333,32,32,58,143,36*49
$GLGSV,7,4,24,66,35,44,45,67,87,230,35,68,32,225,24,74,5,330,21*67
$GLGSV,7,5,24,75,13,22,39,81,18,153,28,82,68,172,35,83,54,315,23*5C
$BDGSV,7,6,24,202,18,129,,205,28,158,,206,42,59,27,209,57,95,29*68
$BDGSV,7,7,24,213,11,120,*6D
$GPRMC,205317.00,A,5242.6946,N,04127.2554,E,1.114,273.402,040420,,E,A*14
$GPGGA,205318.00,5242.6943,N,04127.2546,E,1,18,0.628,139.656,M,,M,0,*48
$GNGSA,A,3,1,8,10,11,14,20,22,24,27,28,32,206,209,67,68,74,75,81,,,1.178,0.628,0.997*27
$GPGSA,A,3,1,8,10,11,14,20,22,24,27,28,32,,,,,,,,,,1.178,0.628,0.997*31
$GLGSA,A,3,67,68,74,75,81,,,,,,,,,,,,,,,,1.178,0.628,0.997*2D
$BDGSA,A,3,206,209,,,,,,,,,,,,,,,,,,,1.178,0.628,0.997*28
$QZGSA,A,3,,,,,,,,,,,,,,,,,,,,,1.178,0.628,0.997*2A
$GPGSV,7,1,24,1,26,298,25,8,47,238,32,10,54,71,39,11,53,285,39*44
$GPGSV,7,2,24,14,40,170,26,20,21,78,25,22,18,256,35,24,16,48,37*77
$GPGSV,7,3,24,27,31,198,25,28,10,333,22,32,58,143,35*4F
$GLGSV,7,4,24,66,35,44,43,67,87,230,36,68,32,225,24,74,5,330,22*61
$GLGSV,7,5,24,75,13,22,33,81,18,153,26,82,68,172,35,83,54,315,26*5D
$BDGSV,7,6,24,202,18,129,,205,28,158,,206,42,59,27,209,57,95,30*60
$BDGSV,7,7,24,213,11,120,*6D
$GPRMC,205318.00,A,5242.6943,N,04127.2546,E,2.335,229.859,040420,,E,A*12
$GPGGA,205319.00,5242.6937,N,04127.2535,E,1,18,0.628,138.910,M,,M,0,*42
$GNGSA,A,3,1,8,10,11,14,20,22,24,27,28,32,206,209,67,68,74,75,81,,,1.178,0.628,0.997*27
$GPGSA,A,3,1,8,10,11,14,20,22,24,27,28,32,,,,,,,,,,1.178,0.628,0.997*31
$GLGSA,A,3,67,68,74,75,81,,,,,,,,,,,,,,,,1.178,0.628,0.997*2D
$BDGSA,A,3,206,209,,,,,,,,,,,,,,,,,,,1.178,0.628,0.997*28
$QZGSA,A,3,,,,,,,,,,,,,,,,,,,,,1.178,0.628,0.997*2A
$GPGSV,7,1,24,1,26,298,27,8,47,238,34,10,54,71,38,11,53,285,34*4C
$GPGSV,7,2,24,14,40,170,24,20,21,78,24,22,18,256,38,24,16,48,37*79
$GPGSV,7,3,24,27,31,198,29,28,10,332,27,32,58,143,30*42
$GLGSV,7,4,24,66,35,44,43,67,87,230,35,68,32,225,26,74,5,330,20*62
$GLGSV,7,5,24,75,13,22,36,81,18,153,23,82,68,172,25,83,54,315,25*5F
$BDGSV,7,6,24,202,18,129,,205,28,158,,206,42,59,24,209,57,95,31*62
$BDGSV,7,7,24,213,11,120,*6D
$GPRMC,205319.00,A,5242.6937,N,04127.2535,E,2.244,266.058,040420,,E,A*11
$GPGGA,205320.00,5242.6932,N,04127.2525,E,1,18,0.628,138.133,M,,M,0,*45
$GNGSA,A,3,1,8,10,11,14,20,22,24,27,28,32,206,209,67,68,74,75,81,,,1.178,0.628,0.997*27
$GPGSA,A,3,1,8,10,11,14,20,22,24,27,28,32,,,,,,,,,,1.178,0.628,0.997*31
$GLGSA,A,3,67,68,74,75,81,,,,,,,,,,,,,,,,1.178,0.628,0.997*2D
$BDGSA,A,3,206,209,,,,,,,,,,,,,,,,,,,1.178,0.628,0.997*28
$QZGSA,A,3,,,,,,,,,,,,,,,,,,,,,1.178,0.628,0.997*2A
$GPGSV,7,1,24,1,26,298,29,8,47,238,35,10,54,71,39,11,53,285,37*41
$GPGSV,7,2,24,14,40,170,26,20,21,78,25,22,18,256,35,24,16,48,34*74
$GPGSV,7,3,24,27,31,198,25,28,10,332,25,32,58,143,30*4C
$GLGSV,7,4,24,66,35,44,42,67,87,230,35,68,32,225,27,74,5,330,19*68
$GLGSV,7,5,24,75,13,22,33,81,17,153,23,82,68,172,27,83,54,315,22*50
$BDGSV,7,6,24,202,18,129,,205,28,158,,206,42,59,29,209,57,95,30*6E
$BDGSV,7,7,24,213,11,120,*6D
$GPRMC,205320.00,A,5242.6932,N,04127.2525,E,1.867,247.268,040420,,E,A*15
$GPGGA,205321.00,5242.6926,N,04127.2519,E,1,18,0.628,137.362,M,,M,0,*47
$GNGSA,A,3,1,8,10,11,14,20,22,24,27,28,32,206,209,67,68,74,75,81,,,1.178,0.628,0.997*27
$GPGSA,A,3,1,8,10,11,14,20,22,24,27,28,32,,,,,,,,,,1.178,0.628,0.997*31
$GLGSA,A,3,67,68,74,75,81,,,,,,,,,,,,,,,,1.178,0.628,0.997*2D
$BDGSA,A,3,206,209,,,,,,,,,,,,,,,,,,,1.178,0.628,0.997*28
$QZGSA,A,3,,,,,,,,,,,,,,,,,,,,,1.178,0.628,0.997*2A
$GPGSV,7,1,24,1,26,298,29,8,47,238,35,10,54,71,40,11,53,285,38*40
$GPGSV,7,2,24,14,40,170,25,20,21,78,26,22,18,256,34,24,16,48,31*70
$GPGSV,7,3,24,27,31,198,29,28,10,332,25,32,58,143,29*48
$GLGSV,7,4,24,66,35,44,41,67,87,230,36,68,32,225,35,74,5,330,18*6A
$GLGSV,7,5,24,75,13,22,33,81,17,153,24,82,67,172,30,83,54,315,26*5A
$BDGSV,7,6,24,202,18,129,,205,28,158,,206,42,59,29,209,57,95,30*6E
$BDGSV,7,7,24,213,11,120,*6D
$GPRMC,205321.00,A,5242.6926,N,04127.2519,E,1.641,226.254,040420,,E,A*1C
$GPGGA,205322.00,5242.6921,N,04127.2512,E,1,18,0.628,136.991,M,,M,0,*4F
$GNGSA,A,3,1,8,10,11,14,20,22,24,27,28,32,206,209,67,68,74,75,81,,,1.178,0.628,0.997*27
$GPGSA,A,3,1,8,10,11,14,20,22,24,27,28,32,,,,,,,,,,1.178,0.628,0.997*31
$GLGSA,A,3,67,68,74,75,81,,,,,,,,,,,,,,,,1.178,0.628,0.997*2D
$BDGSA,A,3,206,209,,,,,,,,,,,,,,,,,,,1.178,0.628,0.997*28
$QZGSA,A,3,,,,,,,,,,,,,,,,,,,,,1.178,0.628,0.997*2A
$GPGSV,7,1,24,1,27,298,31,8,47,238,36,10,54,71,39,11,53,285,38*45
$GPGSV,7,2,24,14,40,170,27,20,21,78,28,22,18,256,32,24,16,48,29*73
$GPGSV,7,3,24,27,31,198,32,28,10,332,29,32,58,143,34*42
$GLGSV,7,4,24,66,35,44,38,67,87,230,36,68,32,225,36,74,5,330,19*66
$GLGSV,7,5,24,75,13,22,32,81,17,153,23,82,67,172,34,83,54,315,25*5B
$BDGSV,7,6,24,202,18,129,,205,28,158,,206,42,59,29,209,57,95,31*6F
$BDGSV,7,7,24,213,11,120,*6D
$GPRMC,205322.00,A,5242.6921,N,04127.2512,E,2.022,254.805,040420,,E,A*18
$GPGGA,205323.00,5242.6916,N,04127.2503,E,1,18,0.628,136.127,M,,M,0,*4F
$GNGSA,A,3,1,8,10,11,14,20,22,24,27,28,32,206,209,67,68,74,75,81,,,1.178,0.628,0.996*26
$GPGSA,A,3,1,8,10,11,14,20,22,24,27,28,32,,,,,,,,,,1.178,0.628,0.996*30
$GLGSA,A,3,67,68,74,75,81,,,,,,,,,,,,,,,,1.178,0.628,0.996*2C
$BDGSA,A,3,206,209,,,,,,,,,,,,,,,,,,,1.178,0.628,0.996*29
$QZGSA,A,3,,,,,,,,,,,,,,,,,,,,,1.178,0.628,0.996*2B
$GPGSV,7,1,24,1,27,298,32,8,47,238,33,10,54,71,40,11,53,285,37*42
$GPGSV,7,2,24,14,40,170,28,20,21,78,29,22,18,256,30,24,16,48,30*77
$GPGSV,7,3,24,27,31,198,32,28,10,332,33,32,58,143,37*4A
$GLGSV,7,4,24,66,35,44,38,67,87,230,37,68,32,225,33,74,5,330,19*62
$GLGSV,7,5,24,75,13,22,28,81,17,153,25,82,67,172,35,83,54,315,24*56
$BDGSV,7,6,24,202,18,129,19,205,28,158,,206,42,59,29,209,57,95,31*67
$BDGSV,7,7,24,213,11,120,*6D
$GPRMC,205323.00,A,5242.6916,N,04127.2503,E,1.777,252.429,040420,,E,A*1D
$GPGGA,205324.00,5242.6913,N,04127.2495,E,1,19,0.584,135.742,M,,M,0,*41
$GNGSA,A,3,1,8,10,11,14,20,22,24,27,28,32,206,209,213,67,68,74,75,81,,1.077,0.584,0.905*17
$GPGSA,A,3,1,8,10,11,14,20,22,24,27,28,32,,,,,,,,,,1.077,0.584,0.905*31
$GLGSA,A,3,67,68,74,75,81,,,,,,,,,,,,,,,,1.077,0.584,0.905*2D
$BDGSA,A,3,206,209,213,,,,,,,,,,,,,,,,,,1.077,0.584,0.905*18
$QZGSA,A,3,,,,,,,,,,,,,,,,,,,,,1.077,0.584,0.905*2A
$GPGSV,7,1,24,1,27,298,31,8,47,238,36,10,54,71,39,11,53,285,36*4B
$GPGSV,7,2,24,14,40,170,28,20,21,78,29,22,18,256,31,24,16,48,28*7F
$GPGSV,7,3,24,27,31,198,25,28,10,332,36,32,58,143,38*46
$GLGSV,7,4,24,66,35,44,39,67,87,230,36,68,32,225,33,74,5,330,19*62
$GLGSV,7,5,24,75,13,22,29,81,17,153,26,82,67,172,34,83,54,315,28*59
$BDGSV,7,6,24,202,18,129,14,205,28,158,,206,42,59,27,209,57,95,31*64
$BDGSV,7,7,24,213,11,120,19*65
$GPRMC,205324.00,A,5242.6913,N,04127.2495,E,1.979,254.697,040420,,E,A*10
$GPGGA,205325.00,5242.6912,N,04127.2487,E,1,19,0.584,135.979,M,,M,0,*44
$GNGSA,A,3,1,8,10,11,14,20,22,24,27,28,32,206,209,213,67,68,74,75,81,,1.077,0.584,0.905*17
$GPGSA,A,3,1,8,10,11,14,20,22,24,27,28,32,,,,,,,,,,1.077,0.584,0.905*31
$GLGSA,A,3,67,68,74,75,81,,,,,,,,,,,,,,,,1.077,0.584,0.905*2D
$BDGSA,A,3,206,209,213,,,,,,,,,,,,,,,,,,1.077,0.584,0.905*18
$QZGSA,A,3,,,,,,,,,,,,,,,,,,,,,1.077,0.584,0.905*2A
$GPGSV,7,1,24,1,27,298,32,8,47,238,32,10,54,71,37,11,53,285,39*4D
$GPGSV,7,2,24,14,40,170,26,20,21,78,30,22,18,256,26,24,16,48,30*76
$GPGSV,7,3,24,27,31,198,27,28,10,332,32,32,58,143,37*4F
$GLGSV,7,4,24,66,35,44,38,67,87,230,37,68,32,225,35,74,5,330,19*64
$GLGSV,7,5,24,75,13,22,33,81,17,153,25,82,67,172,34,83,54,315,27*5E
$BDGSV,7,6,24,202,18,129,11,205,28,158,,206,42,59,26,209,57,95,30*61
$BDGSV,7,7,24,213,11,120,18*64
$GPRMC,205325.00,A,5242.6912,N,04127.2487,E,2.110,272.364,040420,,E,A*1A
$GPGGA,205326.00,5242.6911,N,04127.2478,E,1,19,0.584,135.739,M,,M,0,*4E
$GNGSA,A,3,1,8,10,11,14,20,22,24,27,28,32,206,209,213,67,68,74,75,81,,1.077,0.584,0.905*17
$GPGSA,A,3,1,8,10,11,14,20,22,24,27,28,32,,,,,,,,,,1.077,0.584,0.905*31
$GLGSA,A,3,67,68,74,75,81,,,,,,,,,,,,,,,,1.077,0.584,0.905*2D
$BDGSA,A,3,206,209,213,,,,,,,,,,,,,,,,,,1.077,0.584,0.905*18
$QZGSA,A,3,,,,,,,,,,,,,,,,,,,,,1.077,0.584,0.905*2A
$GPGSV,7,1,24,1,27,298,35,8,47,238,35,10,54,71,38,11,53,285,40*4C
$GPGSV,7,2,24,14,40,170,25,20,21,78,30,22,18,256,24,24,16,48,29*7F
$GPGSV,7,3,24,27,31,198,27,28,10,332,30,32,58,143,38*42
$GLGSV,7,4,24,66,35,44,43,67,87,230,36,68,32,225,32,74,5,330,23*67
$GLGSV,7,5,24,75,13,22,34,81,17,153,25,82,67,172,34,83,54,315,24*5A
$BDGSV,7,6,24,202,18,129,11,205,28,158,,206,42,59,29,209,57,95,31*6F
$BDGSV,7,7,24,213,10,120,19*64
$GPRMC,205326.00,A,5242.6911,N,04127.2478,E,1.420,260.952,040420,,E,A*13
$GPGGA,205327.00,5242.6910,N,04127.2469,E,1,19,0.584,135.777,M,,M,0,*44
$GNGSA,A,3,1,8,10,11,14,20,22,24,27,28,32,206,209,213,67,68,74,75,81,,1.077,0.584,0.905*17
$GPGSA,A,3,1,8,10,11,14,20,22,24,27,28,32,,,,,,,,,,1.077,0.584,0.905*31
$GLGSA,A,3,67,68,74,75,81,,,,,,,,,,,,,,,,1.077,0.584,0.905*2D
$BDGSA,A,3,206,209,213,,,,,,,,,,,,,,,,,,1.077,0.584,0.905*18
$QZGSA,A,3,,,,,,,,,,,,,,,,,,,,,1.077,0.584,0.905*2A
$GPGSV,7,1,24,1,27,298,32,8,47,238,35,10,54,71,39,11,53,285,36*4B
$GPGSV,7,2,24,14,40,170,28,20,21,78,28,22,18,256,24,24,16,48,33*70
$GPGSV,7,3,24,27,31,198,29,28,10,332,35,32,58,143,35*44
$GLGSV,7,4,24,66,35,44,41,67,87,230,37,68,32,225,31,74,5,330,23*67
$GLGSV,7,5,24,75,13,22,37,81,17,153,23,82,67,172,33,83,54,315,24*58
$BDGSV,7,6,24,202,18,129,11,205,28,158,,206,42,59,30,209,57,95,30*66
$BDGSV,7,7,24,213,10,120,20*6E
$GPRMC,205327.00,A,5242.6910,N,04127.2469,E,2.100,264.945,040420,,E,A*15
$GPGGA,205328.00,5242.6909,N,04127.2459,E,1,19,0.584,135.862,M,,M,0,*4B
$GNGSA,A,3,1,8,10,11,14,20,22,24,27,28,32,206,209,213,67,68,74,75,81,,1.077,0.584,0.905*17
$GPGSA,A,3,1,8,10,11,14,20,22,24,27,28,32,,,,,,,,,,1.077,0.584,0.905*31
$GLGSA,A,3,67,68,74,75,81,,,,,,,,,,,,,,,,1.077,0.584,0.905*2D
$BDGSA,A,3,206,209,213,,,,,,,,,,,,,,,,,,1.077,0.584,0.905*18
$QZGSA,A,3,,,,,,,,,,,,,,,,,,,,,1.077,0.584,0.905*2A
$GPGSV,7,1,24,1,27,298,29,8,47,238,35,10,54,71,39,11,53,285,35*42
$GPGSV,7,2,24,14,40,170,25,20,21,78,30,22,18,256,29,24,16,48,32*78
$GPGSV,7,3,24,27,31,198,25,28,10,332,32,32,58,143,34*4E
$GLGSV,7,4,24,66,35,44,44,67,87,231,35,68,32,225,27,74,5,330,26*63
$GLGSV,7,5,24,75,13,22,40,81,17,153,22,82,67,172,35,83,54,315,25*5E
$BDGSV,7,6,24,202,18,129,11,205,28,158,,206,42,59,29,209,57,95,32*6C
$BDGSV,7,7,24,213,10,120,19*64
$GPRMC,205328.00,A,5242.6909,N,04127.2459,E,1.828,260.050,040420,,E,A*18
$GPGGA,205329.00,5242.6910,N,04127.2451,E,1,20,0.564,136.088,M,,M,0,*41
$GNGSA,A,3,1,8,10,11,14,20,22,24,27,28,32,205,206,209,213,67,68,74,75,81,1.059,0.564,0.896*29
$GPGSA,A,3,1,8,10,11,14,20,22,24,27,28,32,,,,,,,,,,1.059,0.564,0.896*38
$GLGSA,A,3,67,68,74,75,81,,,,,,,,,,,,,,,,1.059,0.564,0.896*24
$BDGSA,A,3,205,206,209,213,,,,,,,,,,,,,,,,,1.059,0.564,0.896*26
$QZGSA,A,3,,,,,,,,,,,,,,,,,,,,,1.059,0.564,0.896*23
$GPGSV,7,1,24,1,27,298,28,8,47,238,33,10,54,71,40,11,53,285,34*4A
$GPGSV,7,2,24,14,40,170,28,20,21,78,25,22,18,256,30,24,16,48,30*7B
$GPGSV,7,3,24,27,31,198,28,28,10,332,36,32,58,143,36*45
$GLGSV,7,4,24,66,35,44,43,67,87,231,33,68,32,225,25,74,5,330,26*60
$GLGSV,7,5,24,75,13,22,40,81,17,153,25,82,67,172,34,83,54,315,25*58
$BDGSV,7,6,24,202,18,129,,205,28,158,15,206,42,59,32,209,57,95,30*60
$BDGSV,7,7,24,213,10,121,19*65
$GPRMC,205329.00,A,5242.6910,N,04127.2451,E,0.965,247.687,040420,,E,A*19
$GPGGA,205330.00,5242.6909,N,04127.2447,E,1,20,0.564,136.291,M,,M,0,*4C
$GNGSA,A,3,1,8,10,11,14,20,22,24,27,28,32,205,206,209,213,67,68,74,75,81,1.059,0.564,0.896*29
$GPGSA,A,3,1,8,10,11,14,20,22,24,27,28,32,,,,,,,,,,1.059,0.564,0.896*38
$GLGSA,A,3,67,68,74,75,81,,,,,,,,,,,,,,,,1.059,0.564,0.896*24
$BDGSA,A,3,205,206,209,213,,,,,,,,,,,,,,,,,1.059,0.564,0.896*26
$QZGSA,A,3,,,,,,,,,,,,,,,,,,,,,1.059,0.564,0.896*23
$GPGSV,7,1,24,1,27,298,29,8,47,238,29,10,54,71,41,11,53,285,32*47
$GPGSV,7,2,24,14,40,170,26,20,21,78,25,22,18,256,26,24,16,48,34*76
$GPGSV,7,3,24,27,31,198,23,28,10,332,37,32,58,143,36*4F
$GLGSV,7,4,24,66,35,44,46,67,87,231,36,68,32,225,23,74,5,330,28*68
$GLGSV,7,5,24,75,13,22,42,81,17,153,21,82,67,172,32,83,54,315,25*58
$BDGSV,7,6,24,202,18,129,,205,28,158,14,206,42,59,32,209,57,95,32*63
$BDGSV,7,7,24,213,10,121,19*65
$GPRMC,205330.00,A,5242.6909,N,04127.2447,E,0.386,234.240,040420,,E,A*12
$GPGGA,205331.00,5242.6909,N,04127.2447,E,1,19,0.584,136.291,M,,M,0,*49
$GNGSA,A,3,1,8,10,11,14,20,22,24,27,28,32,206,209,213,67,68,74,75,81,,1.076,0.584,0.904*17
$GPGSA,A,3,1,8,10,11,14,20,22,24,27,28,32,,,,,,,,,,1.076,0.584,0.904*31
$GLGSA,A,3,67,68,74,75,81,,,,,,,,,,,,,,,,1.076,0.584,0.904*2D
$BDGSA,A,3,206,209,213,,,,,,,,,,,,,,,,,,1.076,0.584,0.904*18
$QZGSA,A,3,,,,,,,,,,,,,,,,,,,,,1.076,0.584,0.904*2A
$GPGSV,7,1,24,1,27,298,29,8,47,238,28,10,54,71,38,11,53,285,24*4F
$GPGSV,7,2,24,14,40,170,27,20,21,78,28,22,18,256,30,24,16,48,36*7F
$GPGSV,7,3,24,27,31,198,22,28,10,332,32,32,58,143,34*49
$GLGSV,7,4,24,66,35,44,44,67,87,231,35,68,32,225,19,74,5,330,29*61
$GLGSV,7,5,24,75,13,22,45,81,17,153,21,82,67,172,32,83,54,315,25*5F
$BDGSV,7,6,24,202,18,129,,205,28,158,14,206,42,59,31,209,57,95,32*60
$BDGSV,7,7,24,213,10,121,19*65
$GPRMC,205331.00,A,5242.6909,N,04127.2447,E,0.000,234.240,040420,,E,A*1E
$GPGGA,205332.00,5242.6905,N,04127.2439,E,1,19,0.584,136.733,M,,M,0,*42
$GNGSA,A,3,1,8,10,11,14,20,22,24,27,28,32,206,209,213,67,68,74,75,81,,1.076,0.584,0.904*17
$GPGSA,A,3,1,8,10,11,14,20,22,24,27,28,32,,,,,,,,,,1.076,0.584,0.904*31
$GLGSA,A,3,67,68,74,75,81,,,,,,,,,,,,,,,,1.076,0.584,0.904*2D
$BDGSA,A,3,206,209,213,,,,,,,,,,,,,,,,,,1.076,0.584,0.904*18
$QZGSA,A,3,,,,,,,,,,,,,,,,,,,,,1.076,0.584,0.904*2A
$GPGSV,7,1,24,1,27,298,31,8,47,238,28,10,54,71,35,11,53,285,32*4C
$GPGSV,7,2,24,14,40,170,24,20,21,78,29,22,18,256,27,24,16,48,38*75
$GPGSV,7,3,24,27,31,198,23,28,10,332,33,32,58,143,33*4E
$GLGSV,7,4,24,66,35,44,44,67,87,231,35,68,32,225,24,74,5,330,31*66
$GLGSV,7,5,24,75,13,22,39,81,17,153,22,82,67,172,28,83,54,315,25*5C
$BDGSV,7,6,24,202,18,129,,205,28,158,13,206,42,59,32,209,57,95,27*60
$BDGSV,7,7,24,213,10,121,19*65
$GPRMC,205332.00,A,5242.6905,N,04127.2439,E,2.428,222.144,040420,,E,A*14
$GPGGA,205333.00,5242.6902,N,04127.2431,E,1,19,0.584,136.966,M,,M,0,*42
$GNGSA,A,3,1,8,10,11,14,20,22,24,27,28,32,206,209,213,67,68,74,75,81,,1.076,0.584,0.904*17
$GPGSA,A,3,1,8,10,11,14,20,22,24,27,28,32,,,,,,,,,,1.076,0.584,0.904*31
$GLGSA,A,3,67,68,74,75,81,,,,,,,,,,,,,,,,1.076,0.584,0.904*2D
$BDGSA,A,3,206,209,213,,,,,,,,,,,,,,,,,,1.076,0.584,0.904*18
$QZGSA,A,3,,,,,,,,,,,,,,,,,,,,,1.076,0.584,0.904*2A
$GPGSV,7,1,24,1,27,298,28,8,47,238,29,10,54,71,37,11,53,285,29*4D
$GPGSV,7,2,24,14,40,170,25,20,21,78,30,22,18,256,28,24,16,48,36*7D
$GPGSV,7,3,24,27,31,198,23,28,10,332,31,32,58,143,28*46
$GLGSV,7,4,24,66,35,44,45,67,87,231,34,68,32,225,20,74,5,330,26*64
$GLGSV,7,5,24,75,13,22,33,81,17,153,20,82,67,172,24,83,54,315,23*5E
$BDGSV,7,6,24,202,18,129,,205,28,158,13,206,42,59,31,209,57,95,32*67
$BDGSV,7,7,24,213,10,121,22*6D
$GPRMC,205333.00,A,5242.6902,N,04127.2431,E,1.340,222.144,040420,,E,A*10
$GPGGA,205334.00,5242.6899,N,04127.2425,E,1,19,0.584,137.232,M,,M,0,*48
$GNGSA,A,3,1,8,10,11,14,20,22,24,27,28,32,206,209,213,67,68,74,75,81,,1.076,0.584,0.904*17
$GPGSA,A,3,1,8,10,11,14,20,22,24,27,28,32,,,,,,,,,,1.076,0.584,0.904*31
$GLGSA,A,3,67,68,74,75,81,,,,,,,,,,,,,,,,1.076,0.584,0.904*2D
$BDGSA,A,3,206,209,213,,,,,,,,,,,,,,,,,,1.076,0.584,0.904*18
$QZGSA,A,3,,,,,,,,,,,,,,,,,,,,,1.076,0.584,0.904*2A
$GPGSV,7,1,24,1,27,298,27,8,47,238,26,10,54,71,39,11,53,284,29*42
$GPGSV,7,2,24,14,40,170,26,20,21,78,25,22,18,256,31,24,16,48,36*72
$GPGSV,7,3,24,27,31,198,24,28,10,332,32,32,58,143,27*4D
$GLGSV,7,4,24,66,35,44,41,67,87,231,30,68,32,225,22,74,5,330,27*67
$GLGSV,7,5,24,75,13,22,38,81,17,153,22,82,67,172,27,83,54,315,21*56
$BDGSV,7,6,24,202,18,129,,205,28,158,12,206,42,59,28,209,57,95,25*68
$BDGSV,7,7,24,213,10,121,18*64
$GPRMC,205334.00,A,5242.6899,N,04127.2425,E,1.145,222.144,040420,,E,A*16
$GPGGA,205335.00,5242.6899,N,04127.2418,E,1,19,0.584,137.193,M,,M,0,*4F
$GNGSA,A,3,1,8,10,11,14,20,22,24,27,28,32,206,209,213,67,68,74,75,81,,1.076,0.584,0.904*17
$GPGSA,A,3,1,8,10,11,14,20,22,24,27,28,32,,,,,,,,,,1.076,0.584,0.904*31
$GLGSA,A,3,67,68,74,75,81,,,,,,,,,,,,,,,,1.076,0.584,0.904*2D
$BDGSA,A,3,206,209,213,,,,,,,,,,,,,,,,,,1.076,0.584,0.904*18
$QZGSA,A,3,,,,,,,,,,,,,,,,,,,,,1.076,0.584,0.904*2A
$GPGSV,7,1,25,1,27,298,26,8,47,238,27,10,54,71,37,11,53,284,30*45
$GPGSV,7,2,25,14,40,170,25,20,21,78,27,22,18,256,32,24,16,48,34*73
$GPGSV,7,3,25,27,31,198,22,28,10,332,35,32,58,143,28*42
$GLGSV,7,4,25,66,35,44,42,67,87,231,31,68,32,225,23,74,5,330,29*6B
$GLGSV,7,5,25,75,13,22,38,81,17,153,21,82,67,172,28,83,54,315,21*5B
$BDGSV,7,6,25,202,18,129,,205,28,158,,206,42,59,28,209,57,95,26*69
$BDGSV,7,7,25,213,10,121,19,219,58,229,*6A
$GPRMC,205335.00,A,5242.6899,N,04127.2418,E,1.050,222.144,040420,,E,A*1C
$GPGGA,205336.00,5242.6900,N,04127.2411,E,1,19,0.584,136.461,M,,M,0,*4D
$GNGSA,A,3,1,8,10,11,14,20,22,24,27,28,32,206,209,213,67,68,74,75,81,,1.076,0.584,0.904*17
$GPGSA,A,3,1,8,10,11,14,20,22,24,27,28,32,,,,,,,,,,1.076,0.584,0.904*31
$GLGSA,A,3,67,68,74,75,81,,,,,,,,,,,,,,,,1.076,0.584,0.904*2D
$BDGSA,A,3,206,209,213,,,,,,,,,,,,,,,,,,1.076,0.584,0.904*18
$QZGSA,A,3,,,,,,,,,,,,,,,,,,,,,1.076,0.584,0.904*2A
$GPGSV,7,1,25,1,27,298,29,8,47,238,30,10,54,71,35,11,53,284,28*47
$GPGSV,7,2,25,14,40,170,23,20,21,78,31,22,18,256,27,24,16,48,35*77
$GPGSV,7,3,25,27,31,198,23,28,10,332,32,32,58,143,28*44
$GLGSV,7,4,25,66,35,44,38,67,87,231,30,68,32,225,24,74,5,330,22*6B
$GLGSV,7,5,25,75,13,22,36,81,17,153,24,82,67,172,26,83,54,315,25*5A
$BDGSV,7,6,25,202,18,129,,205,28,158,,206,42,59,29,209,57,95,27*69
$BDGSV,7,7,25,213,10,121,19,219,58,229,*6A
$GPRMC,205336.00,A,5242.6900,N,04127.2411,E,2.651,312.276,040420,,E,A*13
$GPGGA,205337.00,5242.6903,N,04127.2403,E,1,19,0.584,135.750,M,,M,0,*4E
$GNGSA,A,3,1,8,10,11,14,20,22,24,27,28,32,206,209,213,67,68,74,75,81,,1.076,0.584,0.904*17
$GPGSA,A,3,1,8,10,11,14,20,22,24,27,28,32,,,,,,,,,,1.076,0.584,0.904*31
$GLGSA,A,3,67,68,74,75,81,,,,,,,,,,,,,,,,1.076,0.584,0.904*2D
$BDGSA,A,3,206,209,213,,,,,,,,,,,,,,,,,,1.076,0.584,0.904*18
$QZGSA,A,3,,,,,,,,,,,,,,,,,,,,,1.076,0.584,0.904*2A
$GPGSV,7,1,25,1,27,298,31,8,47,238,30,10,54,71,32,11,53,284,29*48
$GPGSV,7,2,25,14,40,170,27,20,21,78,38,22,18,256,23,24,16,48,34*7F
$GPGSV,7,3,25,27,31,198,25,28,10,332,37,32,58,143,33*4D
$GLGSV,7,4,25,66,35,44,37,67,87,231,31,68,32,225,23,74,5,330,25*65
$GLGSV,7,5,25,75,13,22,34,81,17,153,24,82,67,172,33,83,54,315,22*5B
$BDGSV,7,6,25,202,18,129,,205,28,158,,206,42,59,34,209,57,95,30*63
$BDGSV,7,7,25,213,10,121,19,219,58,229,*6A
$GPRMC,205337.00,A,5242.6903,N,04127.2403,E,1.035,316.047,040420,,E,A*11
$GPGGA,205338.00,5242.6907,N,04127.2399,E,1,19,0.584,135.449,M,,M,0,*4A
$GNGSA,A,3,1,8,10,11,14,20,22,24,27,28,32,206,209,213,67,68,74,75,81,,1.076,0.584,0.904*17
$GPGSA,A,3,1,8,10,11,14,20,22,24,27,28,32,,,,,,,,,,1.076,0.584,0.904*31
$GLGSA,A,3,67,68,74,75,81,,,,,,,,,,,,,,,,1.076,0.584,0.904*2D
$BDGSA,A,3,206,209,213,,,,,,,,,,,,,,,,,,1.076,0.584,0.904*18
$QZGSA,A,3,,,,,,,,,,,,,,,,,,,,,1.076,0.584,0.904*2A
$GPGSV,7,1,25,1,27,298,34,8,47,238,31,10,54,71,37,11,53,284,31*40
$GPGSV,7,2,25,14,40,170,25,20,21,78,34,22,18,256,25,24,16,48,33*70
$GPGSV,7,3,25,27,31,198,24,28,10,332,35,32,58,143,34*49
$GLGSV,7,4,25,66,35,44,40,67,87,232,29,68,32,225,30,74,5,330,27*6F
$GLGSV,7,5,25,75,13,22,34,81,17,153,27,82,67,172,31,83,54,315,28*50
$BDGSV,7,6,25,202,18,129,,205,28,158,,206,42,59,33,209,57,95,34*60
$BDGSV,7,7,25,213,10,121,18,219,58,229,*6B
$GPRMC,205338.00,A,5242.6907,N,04127.2399,E,1.343,327.273,040420,,E,A*1B
$GPGGA,205339.00,5242.6915,N,04127.2397,E,1,19,0.584,136.001,M,,M,0,*4D
$GNGSA,A,3,1,8,10,11,14,20,22,24,27,28,32,206,209,213,67,68,74,75,81,,1.076,0.584,0.904*17
$GPGSA,A,3,1,8,10,11,14,20,22,24,27,28,32,,,,,,,,,,1.076,0.584,0.904*31
$GLGSA,A,3,67,68,74,75,81,,,,,,,,,,,,,,,,1.076,0.584,0.904*2D
$BDGSA,A,3,206,209,213,,,,,,,,,,,,,,,,,,1.076,0.584,0.904*18
$QZGSA,A,3,,,,,,,,,,,,,,,,,,,,,1.076,0.584,0.904*2A
$GPGSV,7,1,25,1,27,298,33,8,47,238,28,10,54,71,37,11,53,284,35*4B
$GPGSV,7,2,25,14,40,170,29,20,21,78,34,22,18,256,22,24,16,48,32*7A
$GPGSV,7,3,25,27,31,198,24,28,10,332,35,32,58,143,35*48
$GLGSV,7,4,25,66,35,44,38,67,87,232,30,68,32,225,36,74,5,330,26*6F
$GLGSV,7,5,25,75,13,22,34,81,17,153,28,82,67,172,27,83,54,315,29*59
$BDGSV,7,6,25,202,18,129,,205,28,158,,206,42,59,34,209,57,95,32*61
$BDGSV,7,7,25,213,10,121,19,219,58,229,*6A
$GPRMC,205339.00,A,5242.6915,N,04127.2397,E,1.657,1.430,040420,,E,A*11
$GPGGA,205340.00,5242.6923,N,04127.2397,E,1,19,0.584,135.927,M,,M,0,*48
$GNGSA,A,3,1,8,10,11,14,20,22,24,27,28,32,206,209,213,67,68,74,75,81,,1.076,0.584,0.904*17
$GPGSA,A,3,1,8,10,11,14,20,22,24,27,28,32,,,,,,,,,,1.076,0.584,0.904*31
$GLGSA,A,3,67,68,74,75,81,,,,,,,,,,,,,,,,1.076,0.584,0.904*2D
$BDGSA,A,3,206,209,213,,,,,,,,,,,,,,,,,,1.076,0.584,0.904*18
$QZGSA,A,3,,,,,,,,,,,,,,,,,,,,,1.076,0.584,0.904*2A
$GPGSV,7,1,24,1,27,298,35,8,47,238,28,10,54,71,38,11,53,284,33*45
$GPGSV,7,2,24,14,40,170,29,20,21,78,33,22,18,256,21,24,16,48,31*7C
$GPGSV,7,3,24,27,31,198,29,28,10,332,37,32,58,143,40*44
$GLGSV,7,4,24,66,35,44,36,67,87,232,33,68,32,225,31,74,5,330,27*65
$GLGSV,7,5,24,75,13,22,33,81,17,153,27,82,67,172,30,83,54,315,28*57
$BDGSV,7,6,24,202,18,129,,205,28,158,22,206,42,59,32,209,57,95,30*64
$BDGSV,7,7,24,213,10,121,29*66
$GPRMC,205340.00,A,5242.6923,N,04127.2397,E,1.967,10.924,040420,,E,A*2E
$GPGGA,205341.00,5242.6927,N,04127.2395,E,1,20,0.564,136.212,M,,M,0,*45
$GNGSA,A,3,1,8,10,11,14,20,22,24,27,28,32,205,206,209,213,67,68,74,75,81,1.058,0.564,0.895*2B
$GPGSA,A,3,1,8,10,11,14,20,22,24,27,28,32,,,,,,,,,,1.058,0.564,0.895*3A
$GLGSA,A,3,67,68,74,75,81,,,,,,,,,,,,,,,,1.058,0.564,0.895*26
$BDGSA,A,3,205,206,209,213,,,,,,,,,,,,,,,,,1.058,0.564,0.895*24
$QZGSA,A,3,,,,,,,,,,,,,,,,,,,,,1.058,0.564,0.895*21
$GPGSV,7,1,24,1,27,298,35,8,47,238,30,10,54,71,37,11,53,284,37*47
$GPGSV,7,2,24,14,40,170,30,20,21,78,33,22,18,256,24,24,16,48,31*71
$GPGSV,7,3,24,27,31,198,25,28,10,332,37,32,58,143,35*4A
$GLGSV,7,4,24,66,35,44,36,67,87,232,36,68,32,225,32,74,5,330,29*6D
$GLGSV,7,5,24,75,13,22,39,81,17,153,27,82,67,172,31,83,54,315,25*51
$BDGSV,7,6,24,202,18,129,,205,28,158,23,206,42,59,30,209,57,95,33*64
$BDGSV,7,7,24,213,10,121,32*6C
$GPRMC,205341.00,A,5242.6927,N,04127.2395,E,1.363,346.009,040420,,E,A*11
$GPGGA,205342.00,5242.6930,N,04127.2395,E,1,20,0.564,136.574,M,,M,0,*47
$GNGSA,A,3,1,8,10,11,14,20,22,24,27,28,32,205,206,209,213,67,68,74,75,81,1.058,0.564,0.895*2B
$GPGSA,A,3,1,8,10,11,14,20,22,24,27,28,32,,,,,,,,,,1.058,0.564,0.895*3A
$GLGSA,A,3,67,68,74,75,81,,,,,,,,,,,,,,,,1.058,0.564,0.895*26
$BDGSA,A,3,205,206,209,213,,,,,,,,,,,,,,,,,1.058,0.564,0.895*24
$QZGSA,A,3,,,,,,,,,,,,,,,,,,,,,1.058,0.564,0.895*21
$GPGSV,7,1,24,1,27,298,34,8,47,238,32,10,54,71,40,11,53,284,37*44
$GPGSV,7,2,24,14,40,170,28,20,21,78,31,22,18,256,30,24,16,48,28*77
$GPGSV,7,3,24,27,31,198,28,28,10,332,33,32,58,143,33*45
$GLGSV,7,4,24,66,35,44,37,67,88,232,35,68,32,225,31,74,5,330,29*63
$GLGSV,7,5,24,75,13,22,38,81,17,153,29,82,67,172,32,83,54,315,26*5E
$BDGSV,7,6,24,202,18,129,,205,28,158,23,206,42,59,28,209,57,95,32*6C
$BDGSV,7,7,24,213,10,121,35*6B
$GPRMC,205342.00,A,5242.6930,N,04127.2395,E,1.522,357.069,040420,,E,A*11
$GPGGA,205343.00,5242.6934,N,04127.2395,E,1,20,0.564,136.546,M,,M,0,*43
$GNGSA,A,3,1,8,10,11,14,20,22,24,27,28,32,205,206,209,213,67,68,74,75,81,1.058,0.564,0.895*2B
$GPGSA,A,3,1,8,10,11,14,20,22,24,27,28,32,,,,,,,,,,1.058,0.564,0.895*3A
$GLGSA,A,3,67,68,74,75,81,,,,,,,,,,,,,,,,1.058,0.564,0.895*26
$BDGSA,A,3,205,206,209,213,,,,,,,,,,,,,,,,,1.058,0.564,0.895*24
$QZGSA,A,3,,,,,,,,,,,,,,,,,,,,,1.058,0.564,0.895*21
$GPGSV,7,1,24,1,27,298,33,8,47,238,33,10,54,71,39,11,53,284,34*4F
$GPGSV,7,2,24,14,40,170,24,20,21,78,36,22,18,256,26,24,16,48,33*71
$GPGSV,7,3,24,27,31,198,32,28,10,332,31,32,58,143,37*48
$GLGSV,7,4,24,66,35,44,35,67,88,232,34,68,32,225,32,74,5,330,30*6B
$GLGSV,7,5,24,75,13,22,37,81,17,153,30,82,67,172,34,83,54,315,27*5E
$BDGSV,7,6,24,202,18,129,,205,28,158,23,206,42,59,28,209,57,95,33*6D
$BDGSV,7,7,24,213,10,121,36*68
$GPRMC,205343.00,A,5242.6934,N,04127.2395,E,2.086,348.749,040420,,E,A*17
$GPGGA,205344.00,5242.6940,N,04127.2393,E,1,20,0.564,136.062,M,,M,0,*42
$GNGSA,A,3,1,8,10,11,14,20,22,24,27,28,32,205,206,209,213,67,68,74,75,81,1.058,0.564,0.895*2B
$GPGSA,A,3,1,8,10,11,14,20,22,24,27,28,32,,,,,,,,,,1.058,0.564,0.895*3A
$GLGSA,A,3,67,68,74,75,81,,,,,,,,,,,,,,,,1.058,0.564,0.895*26
$BDGSA,A,3,205,206,209,213,,,,,,,,,,,,,,,,,1.058,0.564,0.895*24
$QZGSA,A,3,,,,,,,,,,,,,,,,,,,,,1.058,0.564,0.895*21
$GPGSV,7,1,24,1,27,298,36,8,47,238,31,10,54,71,32,11,53,284,36*41
$GPGSV,7,2,24,14,40,170,26,20,21,78,39,22,18,256,26,24,16,48,36*79
$GPGSV,7,3,24,27,31,198,33,28,10,332,36,32,58,143,38*41
$GLGSV,7,4,24,66,35,44,36,67,88,232,36,68,32,225,33,74,5,330,30*6B
$GLGSV,7,5,24,75,13,22,39,81,17,153,34,82,67,172,36,83,54,315,24*55
$BDGSV,7,6,24,202,18,129,33,205,28,158,23,206,42,59,30,209,57,95,35*62
$BDGSV,7,7,24,213,10,121,35*6B
$GPRMC,205344.00,A,5242.6940,N,04127.2393,E,2.335,338.556,040420,,E,A*15
$GPGGA,205345.00,5242.6947,N,04127.2389,E,1,20,0.564,136.162,M,,M,0,*4E
$GNGSA,A,3,1,8,10,11,14,20,22,24,27,28,32,205,206,209,213,67,68,74,75,81,1.058,0.564,0.895*2B
$GPGSA,A,3,1,8,10,11,14,20,22,24,27,28,32,,,,,,,,,,1.058,0.564,0.895*3A
$GLGSA,A,3,67,68,74,75,81,,,,,,,,,,,,,,,,1.058,0.564,0.895*26
$BDGSA,A,3,205,206,209,213,,,,,,,,,,,,,,,,,1.058,0.564,0.895*24
$QZGSA,A,3,,,,,,,,,,,,,,,,,,,,,1.058,0.564,0.895*21
$GPGSV,7,1,24,1,27,298,35,8,47,238,30,10,54,71,37,11,53,284,35*45
$GPGSV,7,2,24,14,40,170,28,20,21,78,38,22,18,256,26,24,16,48,38*78
$GPGSV,7,3,24,27,31,198,32,28,10,332,36,32,58,143,37*4F
$GLGSV,7,4,24,66,35,44,41,67,88,232,36,68,32,225,34,74,5,330,31*6D
$GLGSV,7,5,24,75,13,22,37,81,17,153,33,82,67,172,32,83,54,315,26*5A
$BDGSV,7,6,24,202,18,129,32,205,28,158,23,206,42,59,30,209,57,95,37*61
$BDGSV,7,7,24,213,10,121,34*6A
$GPRMC,205345.00,A,5242.6947,N,04127.2389,E,2.260,343.148,040420,,E,A*1E
$GPGGA,205346.00,5242.6953,N,04127.2387,E,1,20,0.564,135.777,M,,M,0,*47
$GNGSA,A,3,1,8,10,11,14,20,22,24,27,28,32,205,206,209,213,67,68,74,75,81,1.058,0.564,0.895*2B
$GPGSA,A,3,1,8,10,11,14,20,22,24,27,28,32,,,,,,,,,,1.058,0.564,0.895*3A
$GLGSA,A,3,67,68,74,75,81,,,,,,,,,,,,,,,,1.058,0.564,0.895*26
$BDGSA,A,3,205,206,209,213,,,,,,,,,,,,,,,,,1.058,0.564,0.895*24
$QZGSA,A,3,,,,,,,,,,,,,,,,,,,,,1.058,0.564,0.895*21
$GPGSV,7,1,24,1,27,298,34,8,47,238,34,10,54,71,37,11,53,284,36*43
$GPGSV,7,2,24,14,40,170,32,20,21,78,38,22,18,256,27,24,16,48,38*72
$GPGSV,7,3,24,27,31,198,27,28,10,332,34,32,58,143,39*47
$GLGSV,7,4,24,66,35,44,41,67,88,232,35,68,32,225,33,74,5,330,30*68
$GLGSV,7,5,24,75,13,22,35,81,17,153,34,82,67,172,35,83,54,315,26*58
$BDGSV,7,6,24,202,18,129,32,205,28,158,24,206,42,59,30,209,57,95,37*66
$BDGSV,7,7,24,213,10,121,34*6A
$GPRMC,205346.00,A,5242.6953,N,04127.2387,E,1.788,346.606,040420,,E,A*1E
$GPGGA,205347.00,5242.6959,N,04127.2388,E,1,20,0.564,135.784,M,,M,0,*4F
$GNGSA,A,3,1,8,10,11,14,20,22,24,27,28,32,205,206,209,213,67,68,74,75,81,1.058,0.564,0.894*2A
$GPGSA,A,3,1,8,10,11,14,20,22,24,27,28,32,,,,,,,,,,1.058,0.564,0.894*3B
$GLGSA,A,3,67,68,74,75,81,,,,,,,,,,,,,,,,1.058,0.564,0.894*27
$BDGSA,A,3,205,206,209,213,,,,,,,,,,,,,,,,,1.058,0.564,0.894*25
$QZGSA,A,3,,,,,,,,,,,,,,,,,,,,,1.058,0.564,0.894*20
$GPGSV,7,1,24,1,27,298,32,8,47,238,32,10,54,71,39,11,53,284,37*4C
$GPGSV,7,2,24,14,40,170,28,20,21,78,39,22,18,256,24,24,16,48,35*76
$GPGSV,7,3,24,27,31,198,28,28,10,332,32,32,58,143,39*4E
$GLGSV,7,4,24,66,35,44,42,67,88,232,35,68,32,225,35,74,5,330,32*6F
$GLGSV,7,5,24,75,13,22,36,81,17,153,32,82,67,172,35,83,54,315,27*5C
$BDGSV,7,6,24,202,18,129,28,205,28,158,24,206,42,59,31,209,57,95,37*6C
$BDGSV,7,7,24,213,10,121,35*6B
$GPRMC,205347.00,A,5242.6959,N,04127.2388,E,1.991,348.501,040420,,E,A*16
$GPGGA,205348.00,5242.6963,N,04127.2386,E,1,20,0.564,136.056,M,,M,0,*4C
$GNGSA,A,3,1,8,10,11,14,20,22,24,27,28,32,205,206,209,213,67,68,74,75,81,1.057,0.564,0.894*25
$GPGSA,A,3,1,8,10,11,14,20,22,24,27,28,32,,,,,,,,,,1.057,0.564,0.894*34
$GLGSA,A,3,67,68,74,75,81,,,,,,,,,,,,,,,,1.057,0.564,0.894*28
$BDGSA,A,3,205,206,209,213,,,,,,,,,,,,,,,,,1.057,0.564,0.894*2A
$QZGSA,A,3,,,,,,,,,,,,,,,,,,,,,1.057,0.564,0.894*2F
$GPGSV,7,1,24,1,27,298,35,8,47,238,31,10,54,71,39,11,53,284,35*4A
$GPGSV,7,2,24,14,40,170,31,20,21,78,38,22,18,256,27,24,16,48,33*7A
$GPGSV,7,3,24,27,31,198,31,28,10,332,32,32,58,143,39*46
$GLGSV,7,4,24,66,35,44,42,67,88,233,36,68,32,225,36,74,5,330,33*6F
$GLGSV,7,5,24,75,13,22,34,81,17,153,29,82,67,172,36,83,54,315,29*59
$BDGSV,7,6,24,202,18,129,30,205,28,158,23,206,42,59,33,209,57,95,35*62
$BDGSV,7,7,24,213,10,121,37*69
$GPRMC,205348.00,A,5242.6963,N,04127.2386,E,1.392,303.381,040420,,E,A*16
$GPGGA,205349.00,5242.6966,N,04127.2379,E,1,20,0.564,136.143,M,,M,0,*4D
$GNGSA,A,3,1,8,10,11,14,20,22,24,27,28,32,205,206,209,213,67,68,74,75,81,1.057,0.564,0.894*25
$GPGSA,A,3,1,8,10,11,14,20,22,24,27,28,32,,,,,,,,,,1.057,0.564,0.894*34
$GLGSA,A,3,67,68,74,75,81,,,,,,,,,,,,,,,,1.057,0.564,0.894*28
$BDGSA,A,3,205,206,209,213,,,,,,,,,,,,,,,,,1.057,0.564,0.894*2A
$QZGSA,A,3,,,,,,,,,,,,,,,,,,,,,1.057,0.564,0.894*2F
$GPGSV,7,1,24,1,27,298,34,8,47,238,31,10,54,71,35,11,53,284,36*44
$GPGSV,7,2,24,14,40,170,30,20,21,78,35,22,18,256,34,24,16,48,32*75
$GPGSV,7,3,24,27,31,198,29,28,10,332,31,32,58,143,37*42
$GLGSV,7,4,24,66,35,44,42,67,88,233,36,68,32,225,32,74,5,330,30*68
$GLGSV,7,5,24,75,13,22,39,81,17,153,31,82,67,172,33,83,54,315,27*56
$BDGSV,7,6,24,202,18,129,32,205,28,158,23,206,42,59,35,209,57,95,32*61
$BDGSV,7,7,24,213,10,121,30*6E
$GPRMC,205349.00,A,5242.6966,N,04127.2379,E,1.831,283.665,040420,,E,A*16
$GPGGA,205350.00,5242.6967,N,04127.2368,E,1,20,0.564,136.206,M,,M,0,*46
$GNGSA,A,3,1,8,10,11,14,20,22,24,27,28,32,205,206,209,213,67,68,74,75,81,1.057,0.564,0.894*25
$GPGSA,A,3,1,8,10,11,14,20,22,24,27,28,32,,,,,,,,,,1.057,0.564,0.894*34
$GLGSA,A,3,67,68,74,75,81,,,,,,,,,,,,,,,,1.057,0.564,0.894*28
$BDGSA,A,3,205,206,209,213,,,,,,,,,,,,,,,,,1.057,0.564,0.894*2A
$QZGSA,A,3,,,,,,,,,,,,,,,,,,,,,1.057,0.564,0.894*2F
$GPGSV,7,1,24,1,27,298,35,8,47,238,34,10,54,71,37,11,53,284,39*4D
$GPGSV,7,2,24,14,40,170,28,20,21,78,29,22,18,256,39,24,16,48,32*7C
$GPGSV,7,3,24,27,31,198,28,28,10,332,32,32,58,143,34*43
$GLGSV,7,4,24,66,35,44,42,67,88,233,37,68,32,225,34,74,5,330,25*6B
$GLGSV,7,5,24,75,13,22,39,81,17,153,30,82,67,172,34,83,54,315,26*51
$BDGSV,7,6,24,202,18,129,32,205,28,158,22,206,42,59,30,209,57,95,30*67
$BDGSV,7,7,24,213,10,121,28*67
$GPRMC,205350.00,A,5242.6967,N,04127.2368,E,2.434,265.441,040420,,E,A*19
$GPGGA,205351.00,5242.6966,N,04127.2354,E,1,20,0.564,135.670,M,,M,0,*4F
$GNGSA,A,3,1,8,10,11,14,20,22,24,27,28,32,205,206,209,213,67,68,74,75,81,1.057,0.564,0.894*25
$GPGSA,A,3,1,8,10,11,14,20,22,24,27,28,32,,,,,,,,,,1.057,0.564,0.894*34
$GLGSA,A,3,67,68,74,75,81,,,,,,,,,,,,,,,,1.057,0.564,0.894*28
$BDGSA,A,3,205,206,209,213,,,,,,,,,,,,,,,,,1.057,0.564,0.894*2A
$QZGSA,A,3,,,,,,,,,,,,,,,,,,,,,1.057,0.564,0.894*2F
$GPGSV,7,1,24,1,27,298,32,8,47,238,33,10,54,71,39,11,53,284,35*4F
$GPGSV,7,2,24,14,40,170,28,20,21,78,27,22,18,256,39,24,16,48,38*78
$GPGSV,7,3,24,27,31,198,30,28,10,332,29,32,58,143,39*4D
$GLGSV,7,4,24,66,35,44,42,67,88,233,36,68,32,225,35,74,5,330,25*6B
$GLGSV,7,5,24,75,13,22,38,81,17,153,29,82,67,172,36,83,54,315,28*54
$BDGSV,7,6,24,202,18,129,29,205,28,158,22,206,42,59,32,209,57,95,31*6E
$BDGSV,7,7,24,213,10,121,29*66
$GPRMC,205351.00,A,5242.6966,N,04127.2354,E,2.894,261.011,040420,,E,A*15
$GPGGA,205352.00,5242.6963,N,04127.2341,E,1,20,0.564,134.941,M,,M,0,*41
$GNGSA,A,3,1,8,10,11,14,20,22,24,27,28,32,205,206,209,213,67,68,74,75,81,1.057,0.564,0.894*25
$GPGSA,A,3,1,8,10,11,14,20,22,24,27,28,32,,,,,,,,,,1.057,0.564,0.894*34
$GLGSA,A,3,67,68,74,75,81,,,,,,,,,,,,,,,,1.057,0.564,0.894*28
$BDGSA,A,3,205,206,209,213,,,,,,,,,,,,,,,,,1.057,0.564,0.894*2A
$QZGSA,A,3,,,,,,,,,,,,,,,,,,,,,1.057,0.564,0.894*2F
$GPGSV,7,1,24,1,27,298,27,8,47,238,34,10,54,71,40,11,53,284,37*40
$GPGSV,7,2,24,14,40,170,27,20,21,78,26,22,18,256,36,24,16,47,30*7E
$GPGSV,7,3,24,27,31,198,33,28,10,332,32,32,58,143,37*4A
$GLGSV,7,4,24,66,35,44,43,67,88,233,34,68,32,225,36,74,5,330,23*6D
$GLGSV,7,5,24,75,13,22,40,81,17,153,26,82,67,172,35,83,54,315,25*5A
$BDGSV,7,6,24,202,18,129,28,205,28,158,21,206,42,59,34,209,57,95,31*6A
$BDGSV,7,7,24,213,10,121,30*6E
$GPRMC,205352.00,A,5242.6963,N,04127.2341,E,2.729,252.340,040420,,E,A*19
$GPGGA,205353.00,5242.6960,N,04127.2330,E,1,20,0.564,134.597,M,,M,0,*42
$GNGSA,A,3,1,8,10,11,14,20,22,24,27,28,32,205,206,209,213,67,68,74,75,81,1.057,0.564,0.894*25
$GPGSA,A,3,1,8,10,11,14,20,22,24,27,28,32,,,,,,,,,,1.057,0.564,0.894*34
$GLGSA,A,3,67,68,74,75,81,,,,,,,,,,,,,,,,1.057,0.564,0.894*28
$BDGSA,A,3,205,206,209,213,,,,,,,,,,,,,,,,,1.057,0.564,0.894*2A
$QZGSA,A,3,,,,,,,,,,,,,,,,,,,,,1.057,0.564,0.894*2F
$GPGSV,7,1,24,1,27,298,29,8,47,238,33,10,54,71,39,11,53,284,36*46
$GPGSV,7,2,24,14,40,170,29,20,21,78,28,22,18,256,34,24,16,47,31*7D
$GPGSV,7,3,24,27,31,198,35,28,10,332,33,32,58,143,39*43
$GLGSV,7,4,24,66,35,44,41,67,88,233,36,68,32,225,36,74,5,330,19*64
$GLGSV,7,5,24,75,13,22,36,81,17,153,24,82,67,172,37,83,54,315,27*59
$BDGSV,7,6,24,202,18,129,29,205,28,158,21,206,42,59,28,209,57,95,31*66
$BDGSV,7,7,24,213,10,121,27*68
$GPRMC,205353.00,A,5242.6960,N,04127.2330,E,2.548,257.975,040420,,E,A*11
$GPGGA,205354.00,5242.6960,N,04127.2317,E,1,20,0.564,133.903,M,,M,0,*46
$GNGSA,A,3,1,8,10,11,14,20,22,24,27,28,32,205,206,209,213,67,68,74,75,81,1.057,0.564,0.894*25
$GPGSA,A,3,1,8,10,11,14,20,22,24,27,28,32,,,,,,,,,,1.057,0.564,0.894*34
$GLGSA,A,3,67,68,74,75,81,,,,,,,,,,,,,,,,1.057,0.564,0.894*28
$BDGSA,A,3,205,206,209,213,,,,,,,,,,,,,,,,,1.057,0.564,0.894*2A
$QZGSA,A,3,,,,,,,,,,,,,,,,,,,,,1.057,0.564,0.894*2F
$GPGSV,7,1,24,1,27,298,23,8,47,238,34,10,54,71,37,11,53,284,37*44
$GPGSV,7,2,24,14,40,170,28,20,21,78,24,22,18,256,37,24,16,47,34*76
$GPGSV,7,3,24,27,31,198,34,28,10,332,32,32,58,143,37*4D
$GLGSV,7,4,24,66,35,44,41,67,88,233,37,68,32,225,35,74,5,330,18*67
$GLGSV,7,5,24,75,13,22,34,81,17,153,27,82,67,172,38,83,54,315,27*57
$BDGSV,7,6,24,202,18,129,26,205,28,158,21,206,42,59,33,209,57,95,32*60
$BDGSV,7,7,24,213,10,121,23*6C
$GPRMC,205354.00,A,5242.6960,N,04127.2317,E,2.717,279.043,040420,,E,A*1B
$GPGGA,205355.00,5242.6960,N,04127.2305,E,1,20,0.564,133.832,M,,M,0,*47
$GNGSA,A,3,1,8,10,11,14,20,22,24,27,28,32,205,206,209,213,67,68,74,75,81,1.057,0.564,0.894*25
$GPGSA,A,3,1,8,10,11,14,20,22,24,27,28,32,,,,,,,,,,1.057,0.564,0.894*34
$GLGSA,A,3,67,68,74,75,81,,,,,,,,,,,,,,,,1.057,0.564,0.894*28
$BDGSA,A,3,205,206,209,213,,,,,,,,,,,,,,,,,1.057,0.564,0.894*2A
$QZGSA,A,3,,,,,,,,,,,,,,,,,,,,,1.057,0.564,0.894*2F
$GPGSV,7,1,24,1,27,298,29,8,47,238,33,10,54,71,37,11,53,284,38*46
$GPGSV,7,2,24,14,40,170,26,20,21,78,25,22,18,256,37,24,16,47,39*74
$GPGSV,7,3,24,27,31,198,32,28,10,332,30,32,58,143,35*4B
$GLGSV,7,4,24,66,35,44,42,67,88,233,36,68,32,225,38,74,5,330,22*61
$GLGSV,7,5,24,75,13,22,31,81,17,153,25,82,67,172,35,83,54,315,26*5C
$BDGSV,7,6,24,202,18,129,26,205,28,158,21,206,42,59,29,209,57,95,31*68
$BDGSV,7,7,24,213,10,121,27*68
$GPRMC,205355.00,A,5242.6960,N,04127.2305,E,2.165,262.216,040420,,E,A*12
$GPGGA,205356.00,5242.6958,N,04127.2295,E,1,20,0.564,133.846,M,,M,0,*44
$GNGSA,A,3,1,8,10,11,14,20,22,24,27,28,32,205,206,209,213,67,68,74,75,81,1.057,0.564,0.894*25
$GPGSA,A,3,1,8,10,11,14,20,22,24,27,28,32,,,,,,,,,,1.057,0.564,0.894*34
$GLGSA,A,3,67,68,74,75,81,,,,,,,,,,,,,,,,1.057,0.564,0.894*28
$BDGSA,A,3,205,206,209,213,,,,,,,,,,,,,,,,,1.057,0.564,0.894*2A
$QZGSA,A,3,,,,,,,,,,,,,,,,,,,,,1.057,0.564,0.894*2F
$GPGSV,7,1,24,1,27,298,28,8,47,238,32,10,54,71,38,11,53,284,37*46
$GPGSV,7,2,24,14,40,170,27,20,21,78,29,22,18,256,36,24,16,47,38*79
$GPGSV,7,3,24,27,31,198,31,28,10,332,29,32,58,143,38*4D
$GLGSV,7,4,24,66,35,44,45,67,88,234,36,68,32,225,38,74,5,330,23*60
$GLGSV,7,5,24,75,13,22,34,81,17,153,29,82,67,172,38,83,54,315,27*59
$BDGSV,7,6,24,202,18,129,24,205,28,158,19,206,42,59,30,209,57,95,32*6A
$BDGSV,7,7,24,213,10,121,25*6A
$GPRMC,205356.00,A,5242.6958,N,04127.2295,E,2.324,232.941,040420,,E,A*19
$GPGGA,205357.00,5242.6956,N,04127.2288,E,1,20,0.564,133.352,M,,M,0,*49
$GNGSA,A,3,1,8,10,11,14,20,22,24,27,28,32,205,206,209,213,67,68,74,75,81,1.057,0.564,0.894*25
$GPGSA,A,3,1,8,10,11,14,20,22,24,27,28,32,,,,,,,,,,1.057,0.564,0.894*34
$GLGSA,A,3,67,68,74,75,81,,,,,,,,,,,,,,,,1.057,0.564,0.894*28
$BDGSA,A,3,205,206,209,213,,,,,,,,,,,,,,,,,1.057,0.564,0.894*2A
