$GPGGA,103650.79,5242.3531,N,04126.6688,E,0,,100.000,106.403,M,,M,0,*49
$GNGSA,A,1,,,,,,,,,,,,,,,,,,,,,100.000,100.000,100.000*2F
$GPGSA,A,1,,,,,,,,,,,,,,,,,,,,,100.000,100.000,100.000*31
$GLGSA,A,1,,,,,,,,,,,,,,,,,,,,,100.000,100.000,100.000*2D
$BDGSA,A,1,,,,,,,,,,,,,,,,,,,,,100.000,100.000,100.000*20
$QZGSA,A,1,,,,,,,,,,,,,,,,,,,,,100.000,100.000,100.000*2D
$GPGSV,7,1,23,2,17,160,,6,31,130,,12,42,275,,15,6,213,*4C
$GPGSV,7,2,23,17,43,57,,19,64,76,,24,67,247,,25,10,275,*75
$GPGSV,7,3,23,28,14,87,,32,14,326,*4F
$GLGSV,7,4,23,67,16,291,,68,16,343,,75,36,115,,76,81,16,*5B
$GLGSV,7,5,23,77,30,307,,85,48,46,,86,57,159,*63
$BDGSV,7,6,23,205,23,159,,208,42,80,,210,26,95,,211,51,178,*64
$BDGSV,7,7,23,212,55,70,,213,39,114,*51
$GPRMC,103650.79,V,5242.3531,N,04126.6688,E,0.000,0.000,050420,,E,N*0B
$GPGGA,103651.79,5242.3531,N,04126.6688,E,0,,100.000,106.403,M,,M,0,*48
$GNGSA,A,1,,,,,,,,,,,,,,,,,,,,,100.000,100.000,100.000*2F
$GPGSA,A,1,,,,,,,,,,,,,,,,,,,,,100.000,100.000,100.000*31
$GLGSA,A,1,,,,,,,,,,,,,,,,,,,,,100.000,100.000,100.000*2D
$BDGSA,A,1,,,,,,,,,,,,,,,,,,,,,100.000,100.000,100.000*20
$QZGSA,A,1,,,,,,,,,,,,,,,,,,,,,100.000,100.000,100.000*2D
$GPGSV,7,1,23,2,17,160,,6,31,130,,12,42,275,,15,6,213,*4C
$GPGSV,7,2,23,17,43,57,,19,64,76,,24,67,247,,25,10,275,*75
$GPGSV,7,3,23,28,14,87,,32,14,326,*4F
$GLGSV,7,4,23,67,16,291,,68,16,343,,75,36,115,,76,81,16,*5B
$GLGSV,7,5,23,77,30,307,,85,48,46,,86,57,159,*63
$BDGSV,7,6,23,205,23,159,,208,42,80,,210,26,95,,211,51,178,*64
$BDGSV,7,7,23,212,55,70,,213,39,114,*51
$GPRMC,103651.79,V,5242.3531,N,04126.6688,E,0.000,0.000,050420,,E,N*0A
$GPGGA,103652.79,5242.3531,N,04126.6688,E,0,3,100.000,106.403,M,,M,0,*78
$GNGSA,A,1,12,17,24,,,,,,,,,,,,,,,,,,100.000,100.000,100.000*2C
$GPGSA,A,1,12,17,24,,,,,,,,,,,,,,,,,,100.000,100.000,100.000*32
$GLGSA,A,1,,,,,,,,,,,,,,,,,,,,,100.000,100.000,100.000*2D
$BDGSA,A,1,,,,,,,,,,,,,,,,,,,,,100.000,100.000,100.000*20
$QZGSA,A,1,,,,,,,,,,,,,,,,,,,,,100.000,100.000,100.000*2D
$GPGSV,7,1,23,2,17,160,,6,31,130,27,12,42,275,27,15,6,213,*4C
$GPGSV,7,2,23,17,43,57,40,19,64,76,33,24,67,247,34,25,10,275,*76
$GPGSV,7,3,23,28,14,87,,32,14,326,*4F
$GLGSV,7,4,23,67,16,291,,68,16,343,,75,36,115,,76,81,16,*5B
$GLGSV,7,5,23,77,30,307,,85,48,46,,86,57,159,*63
$BDGSV,7,6,23,205,23,159,,208,42,80,,210,25,95,,211,51,178,*67
$BDGSV,7,7,23,212,55,70,,213,39,114,*51
$GPRMC,103652.79,V,5242.3531,N,04126.6688,E,0.000,0.000,050420,,E,N*09
$GPGGA,103653.56,5242.3710,N,04126.6610,E,1,5,1.739,122.001,M,,M,0,*7E
$GNGSA,A,3,6,12,17,19,24,,,,,,,,,,,,,,,,3.725,1.739,3.295*13
$GPGSA,A,3,6,12,17,19,24,,,,,,,,,,,,,,,,3.725,1.739,3.295*0D
$GLGSA,A,3,,,,,,,,,,,,,,,,,,,,,3.725,1.739,3.295*2C
$BDGSA,A,3,,,,,,,,,,,,,,,,,,,,,3.725,1.739,3.295*21
$QZGSA,A,3,,,,,,,,,,,,,,,,,,,,,3.725,1.739,3.295*2C
$GPGSV,7,1,23,2,17,160,,6,31,130,28,12,42,275,27,15,6,213,*43
$GPGSV,7,2,23,17,43,57,40,19,64,76,35,24,67,247,34,25,10,275,*70
$GPGSV,7,3,23,28,14,87,,32,14,326,*4F
$GLGSV,7,4,23,67,16,291,,68,16,343,29,75,36,115,32,76,81,16,37*55
$GLGSV,7,5,23,77,30,307,28,85,48,46,,86,57,159,36*6C
$BDGSV,7,6,23,205,27,158,,208,42,80,30,210,25,95,,211,51,178,*61
$BDGSV,7,7,23,212,55,70,,213,39,114,*51
$GPRMC,103653.56,A,5242.3710,N,04126.6610,E,0.608,0.000,050420,,E,A*13
$GPGGA,103653.76,5242.3714,N,04126.6611,E,1,7,1.317,120.230,M,,M,0,*71
$GNGSA,A,3,6,12,17,19,24,67,85,,,,,,,,,,,,,,2.356,1.317,1.953*15
$GPGSA,A,3,6,12,17,19,24,,,,,,,,,,,,,,,,2.356,1.317,1.953*07
$GLGSA,A,3,67,85,,,,,,,,,,,,,,,,,,,2.356,1.317,1.953*2A
$BDGSA,A,3,,,,,,,,,,,,,,,,,,,,,2.356,1.317,1.953*2B
$QZGSA,A,3,,,,,,,,,,,,,,,,,,,,,2.356,1.317,1.953*26
$GPGSV,7,1,23,2,17,160,,6,31,130,28,12,42,275,31,15,6,213,*44
$GPGSV,7,2,23,17,43,57,37,19,64,76,35,24,67,247,36,25,10,275,*72
$GPGSV,7,3,23,28,14,87,,32,14,326,*4F
$GLGSV,7,4,23,67,16,291,38,68,16,343,29,75,36,115,32,76,81,16,37*5E
$GLGSV,7,5,23,77,30,307,28,85,48,46,29,86,57,159,36*67
$BDGSV,7,6,23,205,27,158,,208,42,80,30,210,25,95,,211,51,178,*61
$BDGSV,7,7,23,212,55,70,,213,39,114,*51
$GPRMC,103653.76,A,5242.3714,N,04126.6611,E,0.597,0.000,050420,,E,A*11
$GPGGA,103654.76,5242.3729,N,04126.6638,E,1,11,1.251,128.603,M,,M,0,*4B
$GNGSA,A,3,12,17,19,24,208,67,68,75,77,85,86,,,,,,,,,,2.471,1.251,2.131*15
$GPGSA,A,3,12,17,19,24,,,,,,,,,,,,,,,,,2.471,1.251,2.131*3F
$GLGSA,A,3,67,68,75,77,85,86,,,,,,,,,,,,,,,2.471,1.251,2.131*26
$BDGSA,A,3,208,,,,,,,,,,,,,,,,,,,,2.471,1.251,2.131*1F
$QZGSA,A,3,,,,,,,,,,,,,,,,,,,,,2.471,1.251,2.131*28
$GPGSV,7,1,23,2,17,160,,6,31,130,25,12,42,275,35,15,6,213,*4D
$GPGSV,7,2,23,17,43,57,38,19,64,76,34,24,67,247,37,25,10,275,*7D
$GPGSV,7,3,23,28,14,88,,32,14,326,*40
$GLGSV,7,4,23,67,16,291,35,68,16,343,26,75,36,115,34,76,81,17,38*54
$GLGSV,7,5,23,77,30,307,26,85,48,46,28,86,57,159,37*69
$BDGSV,7,6,23,205,27,158,,208,42,80,33,210,25,95,,211,51,178,*62
$BDGSV,7,7,23,212,55,70,,213,39,114,*51
$GPRMC,103654.76,A,5242.3729,N,04126.6638,E,0.751,0.000,050420,,E,A*1B
$GPGGA,103655.76,5242.3734,N,04126.6637,E,1,15,0.868,130.220,M,,M,0,*40
$GNGSA,A,3,6,12,17,19,24,32,208,211,212,67,68,75,77,85,86,,,,,,1.765,0.868,1.536*25
$GPGSA,A,3,6,12,17,19,24,32,,,,,,,,,,,,,,,1.765,0.868,1.536*0C
$GLGSA,A,3,67,68,75,77,85,86,,,,,,,,,,,,,,,1.765,0.868,1.536*22
$BDGSA,A,3,208,211,212,,,,,,,,,,,,,,,,,,1.765,0.868,1.536*18
$QZGSA,A,3,,,,,,,,,,,,,,,,,,,,,1.765,0.868,1.536*2C
$GPGSV,7,1,23,2,17,160,18,6,31,130,30,12,42,275,38,15,6,213,*4D
$GPGSV,7,2,23,17,43,57,34,19,64,76,38,24,67,247,38,25,10,275,8*4A
$GPGSV,7,3,23,28,14,88,,32,14,326,36*45
$GLGSV,7,4,23,67,16,291,34,68,16,343,30,75,36,115,32,76,81,17,40*5B
$GLGSV,7,5,23,77,30,307,24,85,48,46,36,86,57,159,37*64
$BDGSV,7,6,23,205,27,158,,208,42,80,30,210,25,95,,211,51,178,32*60
$BDGSV,7,7,23,212,55,70,30,213,39,114,24*54
$GPRMC,103655.76,A,5242.3734,N,04126.6637,E,0.727,0.000,050420,,E,A*18
$GPGGA,103657.00,5242.3717,N,04126.6657,E,1,16,0.856,121.464,M,,M,0,*4C
$GNGSA,A,3,6,12,17,19,24,32,208,211,212,213,67,68,75,77,85,86,,,,,1.718,0.856,1.489*17
$GPGSA,A,3,6,12,17,19,24,32,,,,,,,,,,,,,,,1.718,0.856,1.489*0E
$GLGSA,A,3,67,68,75,77,85,86,,,,,,,,,,,,,,,1.718,0.856,1.489*20
$BDGSA,A,3,208,211,212,213,,,,,,,,,,,,,,,,,1.718,0.856,1.489*2A
$QZGSA,A,3,,,,,,,,,,,,,,,,,,,,,1.718,0.856,1.489*2E
$GPGSV,7,1,23,2,17,160,23,6,31,130,25,12,42,275,39,15,6,213,*40
$GPGSV,7,2,23,17,43,57,35,19,64,76,39,24,67,247,37,25,10,275,9*44
$GPGSV,7,3,23,28,14,88,,32,14,326,39*4A
$GLGSV,7,4,23,67,16,291,33,68,16,343,33,75,36,115,34,76,81,17,39*57
$GLGSV,7,5,23,77,30,307,25,85,47,46,36,86,57,159,37*6A
$BDGSV,7,6,23,205,27,158,26,208,42,80,32,210,25,95,26,211,51,178,35*65
$BDGSV,7,7,23,212,55,70,35,213,39,114,27*52
$GPRMC,103657.00,A,5242.3717,N,04126.6657,E,0.809,0.000,050420,,E,A*1F
$GPGGA,103658.00,5242.3708,N,04126.6683,E,1,16,0.833,120.816,M,,M,0,*4F
$GNGSA,A,3,6,12,17,19,24,32,208,210,211,212,213,67,68,75,77,85,,,,,1.618,0.833,1.388*2E
$GPGSA,A,3,6,12,17,19,24,32,,,,,,,,,,,,,,,1.618,0.833,1.388*0A
$GLGSA,A,3,67,68,75,77,85,,,,,,,,,,,,,,,,1.618,0.833,1.388*2A
$BDGSA,A,3,208,210,211,212,213,,,,,,,,,,,,,,,,1.618,0.833,1.388*1D
$QZGSA,A,3,,,,,,,,,,,,,,,,,,,,,1.618,0.833,1.388*2A
$GPGSV,7,1,23,2,17,160,22,6,31,130,30,12,42,275,36,15,6,213,14*4F
$GPGSV,7,2,23,17,43,57,32,19,64,76,40,24,67,247,37,25,10,275,13*76
$GPGSV,7,3,23,28,14,88,27,32,14,326,37*41
$GLGSV,7,4,23,67,16,291,34,68,16,343,33,75,36,115,36,76,81,17,37*5C
$GLGSV,7,5,23,77,30,307,22,85,47,46,33,86,57,159,37*68
$BDGSV,7,6,23,205,27,158,20,208,42,80,32,210,25,95,25,211,51,178,33*66
$BDGSV,7,7,23,212,55,70,36,213,39,114,29*5F
$GPRMC,103658.00,A,5242.3708,N,04126.6683,E,1.170,0.000,050420,,E,A*11
$GPGGA,103659.00,5242.3713,N,04126.6674,E,1,18,0.718,123.873,M,,M,0,*44
$GNGSA,A,3,6,12,17,19,24,28,32,205,208,210,211,212,213,67,68,75,77,85,,,1.361,0.718,1.156*1F
$GPGSA,A,3,6,12,17,19,24,28,32,,,,,,,,,,,,,,1.361,0.718,1.156*0C
$GLGSA,A,3,67,68,75,77,85,,,,,,,,,,,,,,,,1.361,0.718,1.156*26
$BDGSA,A,3,205,208,210,211,212,213,,,,,,,,,,,,,,,1.361,0.718,1.156*26
$QZGSA,A,3,,,,,,,,,,,,,,,,,,,,,1.361,0.718,1.156*26
$GPGSV,7,1,23,2,17,160,28,6,31,130,40,12,42,275,39,15,6,213,16*4F
$GPGSV,7,2,23,17,43,57,31,19,64,76,38,24,67,247,36,25,10,275,22*79
$GPGSV,7,3,23,28,14,88,25,32,14,326,32*46
$GLGSV,7,4,23,67,16,291,33,68,16,343,26,75,36,115,39,76,81,17,36*51
$GLGSV,7,5,23,77,30,307,21,85,47,46,30,86,57,159,38*67
$BDGSV,7,6,23,205,27,158,31,208,42,80,33,210,25,95,24,211,51,178,34*61
$BDGSV,7,7,23,212,55,70,32,213,39,114,27*55
$GPRMC,103659.00,A,5242.3713,N,04126.6674,E,0.848,0.000,050420,,E,A*11
$GPGGA,103700.00,5242.3707,N,04126.6674,E,1,17,0.733,122.726,M,,M,0,*44
$GNGSA,A,3,6,12,17,19,24,28,32,205,208,210,211,212,213,67,68,75,85,,,,1.369,0.733,1.156*1E
$GPGSA,A,3,6,12,17,19,24,28,32,,,,,,,,,,,,,,1.369,0.733,1.156*0D
$GLGSA,A,3,67,68,75,85,,,,,,,,,,,,,,,,,1.369,0.733,1.156*27
$BDGSA,A,3,205,208,210,211,212,213,,,,,,,,,,,,,,,1.369,0.733,1.156*27
$QZGSA,A,3,,,,,,,,,,,,,,,,,,,,,1.369,0.733,1.156*27
$GPGSV,7,1,24,2,17,160,29,6,31,130,31,12,42,275,39,15,6,213,17*4E
$GPGSV,7,2,24,17,43,57,29,19,64,76,36,24,67,247,36,25,10,275,23*78
$GPGSV,7,3,24,28,14,88,26,32,14,326,28*49
$GLGSV,7,4,24,67,16,291,33,68,16,343,25,75,36,115,30,76,81,17,33*59
$GLGSV,7,5,24,77,30,307,,85,47,46,30,86,57,159,40*6C
$BDGSV,7,6,24,202,17,129,,205,27,158,31,208,42,80,25,210,25,95,24*62
$BDGSV,7,7,24,211,51,178,35,212,55,70,31,213,40,114,27*51
$GPRMC,103700.00,A,5242.3707,N,04126.6674,E,0.200,0.000,050420,,E,A*1F
$GPGGA,103701.00,5242.3707,N,04126.6674,E,1,17,0.733,122.726,M,,M,0,*45
$GNGSA,A,3,6,12,17,19,24,28,32,205,208,210,211,212,213,67,68,75,85,,,,1.369,0.733,1.156*1E
$GPGSA,A,3,6,12,17,19,24,28,32,,,,,,,,,,,,,,1.369,0.733,1.156*0D
$GLGSA,A,3,67,68,75,85,,,,,,,,,,,,,,,,,1.369,0.733,1.156*27
$BDGSA,A,3,205,208,210,211,212,213,,,,,,,,,,,,,,,1.369,0.733,1.156*27
$QZGSA,A,3,,,,,,,,,,,,,,,,,,,,,1.369,0.733,1.156*27
$GPGSV,7,1,24,2,17,160,29,6,31,130,31,12,42,275,36,15,6,213,18*4E
$GPGSV,7,2,24,17,43,57,30,19,64,76,33,24,67,247,34,25,10,275,23*77
$GPGSV,7,3,24,28,14,88,26,32,14,326,28*49
$GLGSV,7,4,24,67,16,291,32,68,16,343,24,75,36,115,28,76,81,17,35*56
$GLGSV,7,5,24,77,30,307,,85,47,46,28,86,57,159,40*65
$BDGSV,7,6,24,202,17,129,,205,27,158,34,208,42,80,26,210,25,95,25*65
$BDGSV,7,7,24,211,51,178,37,212,55,70,28,213,40,114,24*58
$GPRMC,103701.00,A,5242.3707,N,04126.6674,E,0.000,0.000,050420,,E,A*1C
$GPGGA,103702.00,5242.3707,N,04126.6674,E,1,20,0.633,122.726,M,,M,0,*43
$GNGSA,A,3,2,6,12,17,19,24,25,28,32,205,208,210,211,212,213,67,68,75,77,85,1.200,0.633,1.019*2E
$GPGSA,A,3,2,6,12,17,19,24,25,28,32,,,,,,,,,,,,1.200,0.633,1.019*3D
$GLGSA,A,3,67,68,75,77,85,,,,,,,,,,,,,,,,1.200,0.633,1.019*22
$BDGSA,A,3,205,208,210,211,212,213,,,,,,,,,,,,,,,1.200,0.633,1.019*22
$QZGSA,A,3,,,,,,,,,,,,,,,,,,,,,1.200,0.633,1.019*22
$GPGSV,7,1,24,2,17,160,29,6,31,130,28,12,42,275,39,15,6,213,19*48
$GPGSV,7,2,24,17,43,57,29,19,64,76,34,24,67,247,40,25,10,275,25*7D
$GPGSV,7,3,24,28,14,88,23,32,14,326,25*41
$GLGSV,7,4,24,67,16,291,33,68,16,343,20,75,36,115,27,76,81,17,34*5D
$GLGSV,7,5,24,77,30,307,21,85,47,46,29,86,57,159,43*64
$BDGSV,7,6,24,202,17,129,,205,27,158,34,208,42,80,28,210,25,95,25*6B
$BDGSV,7,7,24,211,51,178,35,212,55,70,29,213,40,114,20*5F
$GPRMC,103702.00,A,5242.3707,N,04126.6674,E,0.000,0.000,050420,,E,A*1F
$GPGGA,103703.00,5242.3706,N,04126.6675,E,1,19,0.670,124.596,M,,M,0,*40
$GNGSA,A,3,2,6,12,17,19,24,25,28,32,208,210,211,212,213,67,68,75,77,85,,1.227,0.670,1.028*19
$GPGSA,A,3,2,6,12,17,19,24,25,28,32,,,,,,,,,,,,1.227,0.670,1.028*3D
$GLGSA,A,3,67,68,75,77,85,,,,,,,,,,,,,,,,1.227,0.670,1.028*22
$BDGSA,A,3,208,210,211,212,213,,,,,,,,,,,,,,,,1.227,0.670,1.028*15
$QZGSA,A,3,,,,,,,,,,,,,,,,,,,,,1.227,0.670,1.028*22
$GPGSV,7,1,24,2,17,160,33,6,31,130,30,12,42,275,40,15,6,213,22*4C
$GPGSV,7,2,24,17,43,57,31,19,64,76,30,24,67,247,37,25,10,275,31*75
$GPGSV,7,3,24,28,14,88,25,32,14,326,26*44
$GLGSV,7,4,24,67,16,291,37,68,16,343,24,75,36,115,28,76,81,17,36*50
$GLGSV,7,5,24,77,30,307,19,85,47,46,29,86,57,159,38*63
$BDGSV,7,6,24,202,17,129,,205,27,158,32,208,42,80,27,210,25,95,25*62
$BDGSV,7,7,24,211,51,178,33,212,55,70,28,213,40,114,24*5C
$GPRMC,103703.00,A,5242.3706,N,04126.6675,E,1.432,0.000,050420,,E,A*1A
$GPGGA,103704.00,5242.3704,N,04126.6677,E,1,19,0.670,126.766,M,,M,0,*48
$GNGSA,A,3,2,6,12,17,19,24,25,28,32,208,210,211,212,213,67,68,75,77,85,,1.228,0.670,1.028*16
$GPGSA,A,3,2,6,12,17,19,24,25,28,32,,,,,,,,,,,,1.228,0.670,1.028*32
$GLGSA,A,3,67,68,75,77,85,,,,,,,,,,,,,,,,1.228,0.670,1.028*2D
$BDGSA,A,3,208,210,211,212,213,,,,,,,,,,,,,,,,1.228,0.670,1.028*1A
$QZGSA,A,3,,,,,,,,,,,,,,,,,,,,,1.228,0.670,1.028*2D
$GPGSV,7,1,24,2,17,160,34,6,31,130,34,12,42,275,41,15,6,213,21*4D
$GPGSV,7,2,24,17,43,57,32,19,64,76,29,24,67,247,36,25,10,275,34*7A
$GPGSV,7,3,24,28,14,88,25,32,14,326,28*4A
$GLGSV,7,4,24,67,16,291,38,68,16,343,25,75,36,115,29,76,81,17,36*5F
$GLGSV,7,5,24,77,30,307,23,85,47,46,28,86,57,159,40*64
$BDGSV,7,6,24,202,17,129,30,205,27,158,32,208,42,80,25,210,25,95,23*65
$BDGSV,7,7,24,211,51,178,30,212,55,70,28,213,40,114,23*58
$GPRMC,103704.00,A,5242.3704,N,04126.6677,E,1.397,0.000,050420,,E,A*15
$GPGGA,103705.00,5242.3701,N,04126.6679,E,1,19,0.670,127.486,M,,M,0,*4E
$GNGSA,A,3,2,6,12,17,19,24,25,28,32,208,210,211,212,213,67,68,75,77,85,,1.228,0.670,1.028*16
$GPGSA,A,3,2,6,12,17,19,24,25,28,32,,,,,,,,,,,,1.228,0.670,1.028*32
$GLGSA,A,3,67,68,75,77,85,,,,,,,,,,,,,,,,1.228,0.670,1.028*2D
$BDGSA,A,3,208,210,211,212,213,,,,,,,,,,,,,,,,1.228,0.670,1.028*1A
$QZGSA,A,3,,,,,,,,,,,,,,,,,,,,,1.228,0.670,1.028*2D
$GPGSV,7,1,24,2,17,160,33,6,31,130,32,12,42,275,41,15,6,213,21*4C
$GPGSV,7,2,24,17,43,57,29,19,64,76,31,24,67,247,36,25,10,275,32*7F
$GPGSV,7,3,24,28,14,88,28,32,14,326,28*47
$GLGSV,7,4,24,67,16,291,36,68,16,343,25,75,36,115,29,76,81,17,34*53
$GLGSV,7,5,24,77,30,307,23,85,47,46,28,86,57,159,35*66
$BDGSV,7,6,24,202,17,129,27,205,27,158,29,208,42,80,26,210,25,95,23*6A
$BDGSV,7,7,24,211,51,178,28,212,55,70,28,213,40,114,29*5B
$GPRMC,103705.00,A,5242.3701,N,04126.6679,E,1.419,0.000,050420,,E,A*1E
$GPGGA,103706.00,5242.3697,N,04126.6684,E,1,19,0.670,128.264,M,,M,0,*44
$GNGSA,A,3,2,6,12,17,19,24,25,28,32,208,210,211,212,213,67,68,75,77,85,,1.228,0.670,1.028*16
$GPGSA,A,3,2,6,12,17,19,24,25,28,32,,,,,,,,,,,,1.228,0.670,1.028*32
$GLGSA,A,3,67,68,75,77,85,,,,,,,,,,,,,,,,1.228,0.670,1.028*2D
$BDGSA,A,3,208,210,211,212,213,,,,,,,,,,,,,,,,1.228,0.670,1.028*1A
$QZGSA,A,3,,,,,,,,,,,,,,,,,,,,,1.228,0.670,1.028*2D
$GPGSV,7,1,24,2,17,160,30,6,31,130,33,12,42,275,37,15,6,213,22*4C
$GPGSV,7,2,24,17,43,57,29,19,64,76,28,24,67,247,37,25,10,275,33*77
$GPGSV,7,3,24,28,14,88,26,32,14,326,29*48
$GLGSV,7,4,24,67,16,291,38,68,16,343,25,75,36,115,30,76,81,17,32*53
$GLGSV,7,5,24,77,30,307,21,85,47,46,30,86,57,159,35*6D
$BDGSV,7,6,24,202,17,129,25,205,27,158,29,208,42,80,26,210,25,95,28*63
$BDGSV,7,7,24,211,51,178,30,212,55,70,32,213,40,114,29*59
$GPRMC,103706.00,A,5242.3697,N,04126.6684,E,1.491,0.000,050420,,E,A*11
$GPGGA,103707.00,5242.3694,N,04126.6688,E,1,19,0.670,128.178,M,,M,0,*44
$GNGSA,A,3,2,6,12,17,19,24,25,28,32,208,210,211,212,213,67,68,75,77,85,,1.228,0.670,1.028*16
$GPGSA,A,3,2,6,12,17,19,24,25,28,32,,,,,,,,,,,,1.228,0.670,1.028*32
$GLGSA,A,3,67,68,75,77,85,,,,,,,,,,,,,,,,1.228,0.670,1.028*2D
$BDGSA,A,3,208,210,211,212,213,,,,,,,,,,,,,,,,1.228,0.670,1.028*1A
$QZGSA,A,3,,,,,,,,,,,,,,,,,,,,,1.228,0.670,1.028*2D
$GPGSV,7,1,24,2,17,160,26,6,31,130,33,12,42,275,40,15,6,213,22*4B
$GPGSV,7,2,24,17,43,57,30,19,64,76,31,24,67,247,36,25,10,275,29*7D
$GPGSV,7,3,24,28,14,88,29,32,14,326,27*49
$GLGSV,7,4,24,67,16,291,37,68,16,343,26,75,36,115,32,76,81,17,32*5D
$GLGSV,7,5,24,77,30,307,22,85,47,46,28,86,57,159,35*67
$BDGSV,7,6,24,202,17,129,25,205,27,158,31,208,42,80,25,210,25,95,28*69
$BDGSV,7,7,24,211,51,178,32,212,55,70,31,213,40,114,29*58
$GPRMC,103707.00,A,5242.3694,N,04126.6688,E,1.156,0.000,050420,,E,A*11
$GPGGA,103708.00,5242.3692,N,04126.6689,E,1,19,0.670,128.719,M,,M,0,*4D
$GNGSA,A,3,2,6,12,17,19,24,25,28,32,208,210,211,212,213,67,68,75,77,85,,1.228,0.670,1.028*16
$GPGSA,A,3,2,6,12,17,19,24,25,28,32,,,,,,,,,,,,1.228,0.670,1.028*32
$GLGSA,A,3,67,68,75,77,85,,,,,,,,,,,,,,,,1.228,0.670,1.028*2D
$BDGSA,A,3,208,210,211,212,213,,,,,,,,,,,,,,,,1.228,0.670,1.028*1A
$QZGSA,A,3,,,,,,,,,,,,,,,,,,,,,1.228,0.670,1.028*2D
$GPGSV,7,1,24,2,17,160,26,6,31,130,29,12,42,275,39,15,6,213,19*46
$GPGSV,7,2,24,17,43,57,28,19,64,76,33,24,67,247,39,25,10,275,31*70
$GPGSV,7,3,24,28,14,88,24,32,14,326,32*40
$GLGSV,7,4,24,67,16,291,35,68,16,343,26,75,36,115,31,76,81,17,33*5D
$GLGSV,7,5,24,77,30,307,23,85,47,46,28,86,57,159,38*6B
$BDGSV,7,6,24,202,17,129,22,205,27,158,31,208,42,80,23,210,25,95,22*62
$BDGSV,7,7,24,211,51,178,31,212,55,70,31,213,40,114,28*5A
$GPRMC,103708.00,A,5242.3692,N,04126.6689,E,0.000,0.000,050420,,E,A*1A
$GPGGA,103709.00,5242.3692,N,04126.6689,E,1,19,0.670,128.719,M,,M,0,*4C
$GNGSA,A,3,2,6,12,17,19,24,25,28,32,208,210,211,212,213,67,68,75,77,85,,1.228,0.670,1.029*17
$GPGSA,A,3,2,6,12,17,19,24,25,28,32,,,,,,,,,,,,1.228,0.670,1.029*33
$GLGSA,A,3,67,68,75,77,85,,,,,,,,,,,,,,,,1.228,0.670,1.029*2C
$BDGSA,A,3,208,210,211,212,213,,,,,,,,,,,,,,,,1.228,0.670,1.029*1B
$QZGSA,A,3,,,,,,,,,,,,,,,,,,,,,1.228,0.670,1.029*2C
$GPGSV,7,1,24,2,17,160,23,6,31,130,30,12,42,275,38,15,6,213,18*4B
$GPGSV,7,2,24,17,43,57,34,19,64,76,34,24,67,247,38,25,10,275,30*7A
$GPGSV,7,3,24,28,14,88,23,32,14,326,35*40
$GLGSV,7,4,24,67,16,291,34,68,16,343,28,75,36,115,29,76,81,17,37*5F
$GLGSV,7,5,24,77,30,307,28,85,47,46,35,86,57,159,34*60
$BDGSV,7,6,24,202,17,129,22,205,27,158,23,208,42,80,26,210,25,95,20*66
$BDGSV,7,7,24,211,51,178,30,212,55,70,31,213,40,114,23*50
$GPRMC,103709.00,A,5242.3692,N,04126.6689,E,0.000,0.000,050420,,E,A*1B
$GPGGA,103710.00,5242.3689,N,04126.6682,E,1,19,0.670,129.155,M,,M,0,*4A
$GNGSA,A,3,2,6,12,17,19,24,25,28,32,208,210,211,212,213,67,68,75,77,85,,1.228,0.670,1.029*17
$GPGSA,A,3,2,6,12,17,19,24,25,28,32,,,,,,,,,,,,1.228,0.670,1.029*33
$GLGSA,A,3,67,68,75,77,85,,,,,,,,,,,,,,,,1.228,0.670,1.029*2C
$BDGSA,A,3,208,210,211,212,213,,,,,,,,,,,,,,,,1.228,0.670,1.029*1B
$QZGSA,A,3,,,,,,,,,,,,,,,,,,,,,1.228,0.670,1.029*2C
$GPGSV,7,1,24,2,17,160,27,6,31,130,25,12,42,275,36,15,6,213,20*4E
$GPGSV,7,2,24,17,43,57,32,19,64,76,35,24,67,247,36,25,10,275,29*7B
$GPGSV,7,3,24,28,14,88,24,32,14,326,33*41
$GLGSV,7,4,24,67,16,291,29,68,16,343,28,75,36,115,33,76,81,18,37*57
$GLGSV,7,5,24,77,30,307,26,85,47,46,36,86,57,159,34*6D
$BDGSV,7,6,24,202,17,129,20,205,27,158,23,208,42,80,26,210,25,95,19*6E
$BDGSV,7,7,24,211,51,178,27,212,55,70,33,213,40,114,30*56
$GPRMC,103710.00,A,5242.3689,N,04126.6682,E,1.667,0.000,050420,,E,A*14
$GPGGA,103711.00,5242.3687,N,04126.6675,E,1,19,0.670,129.260,M,,M,0,*48
$GNGSA,A,3,2,6,12,17,19,24,25,28,32,208,210,211,212,213,67,68,75,77,85,,1.228,0.670,1.029*17
$GPGSA,A,3,2,6,12,17,19,24,25,28,32,,,,,,,,,,,,1.228,0.670,1.029*33
$GLGSA,A,3,67,68,75,77,85,,,,,,,,,,,,,,,,1.228,0.670,1.029*2C
$BDGSA,A,3,208,210,211,212,213,,,,,,,,,,,,,,,,1.228,0.670,1.029*1B
$QZGSA,A,3,,,,,,,,,,,,,,,,,,,,,1.228,0.670,1.029*2C
$GPGSV,7,1,24,2,17,160,26,6,31,130,27,12,42,275,34,15,6,213,20*4F
$GPGSV,7,2,24,17,43,57,34,19,64,76,35,24,67,247,37,25,10,275,27*72
$GPGSV,7,3,24,28,14,88,25,32,14,326,37*44
$GLGSV,7,4,24,67,16,291,33,68,16,343,28,75,36,115,33,76,81,18,36*5D
$GLGSV,7,5,24,77,30,307,27,85,47,46,37,86,57,158,34*6C
$BDGSV,7,6,24,202,17,129,20,205,27,158,23,208,42,80,25,210,25,95,22*65
$BDGSV,7,7,24,211,51,178,27,212,55,70,36,213,40,114,31*52
$GPRMC,103711.00,A,5242.3687,N,04126.6675,E,1.139,0.000,050420,,E,A*1F
$GPGGA,103712.00,5242.3685,N,04126.6667,E,1,19,0.670,129.365,M,,M,0,*4E
$GNGSA,A,3,2,6,12,17,19,24,25,28,32,208,210,211,212,213,67,68,75,77,85,,1.228,0.670,1.029*17
$GPGSA,A,3,2,6,12,17,19,24,25,28,32,,,,,,,,,,,,1.228,0.670,1.029*33
$GLGSA,A,3,67,68,75,77,85,,,,,,,,,,,,,,,,1.228,0.670,1.029*2C
$BDGSA,A,3,208,210,211,212,213,,,,,,,,,,,,,,,,1.228,0.670,1.029*1B
$QZGSA,A,3,,,,,,,,,,,,,,,,,,,,,1.228,0.670,1.029*2C
$GPGSV,7,1,24,2,17,160,22,6,31,130,27,12,42,275,36,15,6,213,19*43
$GPGSV,7,2,24,17,43,57,34,19,64,76,33,24,67,247,36,25,10,275,23*71
$GPGSV,7,3,24,28,14,88,27,32,14,326,36*47
$GLGSV,7,4,24,67,16,291,33,68,16,343,30,75,36,115,31,76,81,18,38*58
$GLGSV,7,5,24,77,30,307,23,85,47,46,37,86,57,158,36*6A
$BDGSV,7,6,24,202,17,129,18,205,27,158,23,208,42,80,24,210,25,95,24*69
$BDGSV,7,7,24,211,51,178,27,212,55,70,29,213,40,114,29*55
$GPRMC,103712.00,A,5242.3685,N,04126.6667,E,0.000,0.000,050420,,E,A*17
$GPGGA,103713.00,5242.3685,N,04126.6667,E,1,19,0.670,129.365,M,,M,0,*4F
$GNGSA,A,3,2,6,12,17,19,24,25,28,32,208,210,211,212,213,67,68,75,77,85,,1.228,0.670,1.029*17
$GPGSA,A,3,2,6,12,17,19,24,25,28,32,,,,,,,,,,,,1.228,0.670,1.029*33
$GLGSA,A,3,67,68,75,77,85,,,,,,,,,,,,,,,,1.228,0.670,1.029*2C
$BDGSA,A,3,208,210,211,212,213,,,,,,,,,,,,,,,,1.228,0.670,1.029*1B
$QZGSA,A,3,,,,,,,,,,,,,,,,,,,,,1.228,0.670,1.029*2C
$GPGSV,7,1,24,2,17,160,22,6,31,130,25,12,42,275,36,15,6,213,23*48
$GPGSV,7,2,24,17,43,57,33,19,64,76,28,24,67,247,36,25,10,275,23*7C
$GPGSV,7,3,24,28,14,88,23,32,14,326,37*42
$GLGSV,7,4,24,67,16,291,35,68,16,343,30,75,36,115,36,76,81,18,36*57
$GLGSV,7,5,24,77,30,307,23,85,47,46,38,86,57,158,36*65
$BDGSV,7,6,24,202,17,129,18,205,27,158,17,208,42,80,18,210,25,95,20*65
$BDGSV,7,7,24,211,51,178,27,212,55,70,34,213,40,114,28*58
$GPRMC,103713.00,A,5242.3685,N,04126.6667,E,0.000,0.000,050420,,E,A*16
$GPGGA,103714.00,5242.3685,N,04126.6667,E,1,19,0.670,129.365,M,,M,0,*48
$GNGSA,A,3,2,6,12,17,19,24,25,28,32,208,210,211,212,213,67,68,75,77,85,,1.228,0.670,1.029*17
$GPGSA,A,3,2,6,12,17,19,24,25,28,32,,,,,,,,,,,,1.228,0.670,1.029*33
$GLGSA,A,3,67,68,75,77,85,,,,,,,,,,,,,,,,1.228,0.670,1.029*2C
$BDGSA,A,3,208,210,211,212,213,,,,,,,,,,,,,,,,1.228,0.670,1.029*1B
$QZGSA,A,3,,,,,,,,,,,,,,,,,,,,,1.228,0.670,1.029*2C
$GPGSV,7,1,24,2,17,160,21,6,31,130,29,12,42,275,33,15,6,213,22*43
$GPGSV,7,2,24,17,43,57,38,19,64,76,38,24,67,247,36,25,10,275,29*7C
$GPGSV,7,3,24,28,14,88,26,32,14,326,40*47
$GLGSV,7,4,24,67,16,291,32,68,16,342,28,75,36,115,35,76,81,18,38*55
$GLGSV,7,5,24,77,30,307,21,85,47,46,39,86,57,158,35*65
$BDGSV,7,6,24,202,17,129,19,205,27,158,17,208,42,80,30,210,25,95,23*6D
$BDGSV,7,7,24,211,51,178,28,212,55,70,37,213,40,114,31*5C
$GPRMC,103714.00,A,5242.3685,N,04126.6667,E,0.000,0.000,050420,,E,A*11
$GPGGA,103715.00,5242.3685,N,04126.6667,E,1,19,0.670,129.365,M,,M,0,*49
$GNGSA,A,3,2,6,12,17,19,24,25,28,32,208,210,211,212,213,67,68,75,77,85,,1.228,0.670,1.029*17
$GPGSA,A,3,2,6,12,17,19,24,25,28,32,,,,,,,,,,,,1.228,0.670,1.029*33
$GLGSA,A,3,67,68,75,77,85,,,,,,,,,,,,,,,,1.228,0.670,1.029*2C
$BDGSA,A,3,208,210,211,212,213,,,,,,,,,,,,,,,,1.228,0.670,1.029*1B
$QZGSA,A,3,,,,,,,,,,,,,,,,,,,,,1.228,0.670,1.029*2C
$GPGSV,7,1,24,2,17,160,22,6,31,130,29,12,42,275,37,15,6,213,22*44
$GPGSV,7,2,24,17,43,57,37,19,64,76,35,24,67,247,35,25,10,275,26*72
$GPGSV,7,3,24,28,14,88,25,32,14,326,35*46
$GLGSV,7,4,24,67,16,291,32,68,16,342,24,75,36,115,39,76,81,18,37*5A
$GLGSV,7,5,24,77,30,307,24,85,47,46,40,86,57,158,37*6C
$BDGSV,7,6,24,202,17,129,19,205,27,158,21,208,42,80,32,210,25,95,25*6C
$BDGSV,7,7,24,211,51,178,28,212,55,70,35,213,40,114,35*5A
$GPRMC,103715.00,A,5242.3685,N,04126.6667,E,0.000,0.000,050420,,E,A*10
$GPGGA,103716.00,5242.3689,N,04126.6667,E,1,19,0.670,129.430,M,,M,0,*41
$GNGSA,A,3,2,6,12,17,19,24,25,28,32,208,210,211,212,213,67,68,75,77,85,,1.228,0.670,1.029*17
$GPGSA,A,3,2,6,12,17,19,24,25,28,32,,,,,,,,,,,,1.228,0.670,1.029*33
$GLGSA,A,3,67,68,75,77,85,,,,,,,,,,,,,,,,1.228,0.670,1.029*2C
$BDGSA,A,3,208,210,211,212,213,,,,,,,,,,,,,,,,1.228,0.670,1.029*1B
$QZGSA,A,3,,,,,,,,,,,,,,,,,,,,,1.228,0.670,1.029*2C
$GPGSV,7,1,24,2,17,160,24,6,31,130,28,12,42,275,33,15,6,213,22*47
$GPGSV,7,2,24,17,43,57,36,19,64,76,35,24,67,247,34,25,10,275,27*73
$GPGSV,7,3,24,28,14,88,28,32,14,325,35*48
$GLGSV,7,4,24,67,16,291,30,68,16,342,28,75,36,115,37,76,81,18,38*55
$GLGSV,7,5,24,77,30,307,23,85,47,46,37,86,57,158,38*64
$BDGSV,7,6,24,202,17,129,16,205,27,158,21,208,42,80,30,210,25,95,31*64
$BDGSV,7,7,24,211,51,178,24,212,55,70,31,213,40,114,32*55
$GPRMC,103716.00,A,5242.3689,N,04126.6667,E,2.105,338.385,050420,,E,A*1F
$GPGGA,103717.00,5242.3694,N,04126.6665,E,1,19,0.670,129.333,M,,M,0,*4A
$GNGSA,A,3,2,6,12,17,19,24,25,28,32,208,210,211,212,213,67,68,75,77,85,,1.228,0.670,1.029*17
$GPGSA,A,3,2,6,12,17,19,24,25,28,32,,,,,,,,,,,,1.228,0.670,1.029*33
$GLGSA,A,3,67,68,75,77,85,,,,,,,,,,,,,,,,1.228,0.670,1.029*2C
$BDGSA,A,3,208,210,211,212,213,,,,,,,,,,,,,,,,1.228,0.670,1.029*1B
$QZGSA,A,3,,,,,,,,,,,,,,,,,,,,,1.228,0.670,1.029*2C
$GPGSV,7,1,24,2,17,160,28,6,31,130,30,12,42,275,30,15,6,213,21*42
$GPGSV,7,2,24,17,43,57,35,19,64,76,35,24,67,247,37,25,10,275,25*71
$GPGSV,7,3,24,28,14,88,28,32,14,325,34*49
$GLGSV,7,4,24,67,16,291,33,68,16,342,27,75,36,115,36,76,81,18,36*56
$GLGSV,7,5,24,77,30,307,25,85,47,46,36,86,57,158,39*62
$BDGSV,7,6,24,202,17,129,16,205,27,158,16,208,42,80,31,210,25,95,29*68
$BDGSV,7,7,24,211,51,178,31,212,55,70,33,213,40,114,33*52
$GPRMC,103717.00,A,5242.3694,N,04126.6665,E,1.964,321.132,050420,,E,A*1A
$GPGGA,103718.00,5242.3698,N,04126.6664,E,1,19,0.671,129.683,M,,M,0,*47
$GNGSA,A,3,2,6,12,17,19,24,25,28,32,208,210,211,212,213,67,68,75,77,85,,1.228,0.671,1.029*16
$GPGSA,A,3,2,6,12,17,19,24,25,28,32,,,,,,,,,,,,1.228,0.671,1.029*32
$GLGSA,A,3,67,68,75,77,85,,,,,,,,,,,,,,,,1.228,0.671,1.029*2D
$BDGSA,A,3,208,210,211,212,213,,,,,,,,,,,,,,,,1.228,0.671,1.029*1A
$QZGSA,A,3,,,,,,,,,,,,,,,,,,,,,1.228,0.671,1.029*2D
$GPGSV,7,1,24,2,17,160,28,6,31,130,30,12,42,275,36,15,6,213,20*45
$GPGSV,7,2,24,17,43,57,35,19,64,76,33,24,67,247,31,25,10,275,27*73
$GPGSV,7,3,24,28,14,88,27,32,14,325,33*41
$GLGSV,7,4,24,67,16,291,32,68,16,342,32,75,36,115,38,76,81,18,37*5C
$GLGSV,7,5,24,77,30,307,25,85,47,46,38,86,57,158,39*6C
$BDGSV,7,6,24,202,17,129,18,205,27,158,16,208,42,80,29,210,25,95,24*62
$BDGSV,7,7,24,211,51,178,30,212,55,70,35,213,40,114,32*54
$GPRMC,103718.00,A,5242.3698,N,04126.6664,E,1.990,339.628,050420,,E,A*16
$GPGGA,103719.00,5242.3705,N,04126.6662,E,1,19,0.671,129.843,M,,M,0,*47
$GNGSA,A,3,2,6,12,17,19,24,25,28,32,208,210,211,212,213,67,68,75,77,85,,1.228,0.671,1.029*16
$GPGSA,A,3,2,6,12,17,19,24,25,28,32,,,,,,,,,,,,1.228,0.671,1.029*32
$GLGSA,A,3,67,68,75,77,85,,,,,,,,,,,,,,,,1.228,0.671,1.029*2D
$BDGSA,A,3,208,210,211,212,213,,,,,,,,,,,,,,,,1.228,0.671,1.029*1A
$QZGSA,A,3,,,,,,,,,,,,,,,,,,,,,1.228,0.671,1.029*2D
$GPGSV,7,1,24,2,17,160,28,6,31,130,28,12,42,275,37,15,6,213,20*4D
$GPGSV,7,2,24,17,43,57,35,19,64,76,36,24,67,247,34,25,10,275,27*73
$GPGSV,7,3,24,28,14,88,28,32,14,325,35*48
$GLGSV,7,4,24,67,16,291,32,68,16,342,28,75,36,115,33,76,81,18,36*5D
$GLGSV,7,5,24,77,30,307,23,85,47,46,36,86,57,158,33*6E
$BDGSV,7,6,24,202,17,129,18,205,27,158,15,208,42,80,32,210,25,95,22*6D
$BDGSV,7,7,24,211,51,178,27,212,55,70,31,213,40,114,29*5C
$GPRMC,103719.00,A,5242.3705,N,04126.6662,E,2.543,336.877,050420,,E,A*1E
$GPGGA,103720.00,5242.3712,N,04126.6659,E,1,19,0.671,129.956,M,,M,0,*46
$GNGSA,A,3,2,6,12,17,19,24,25,28,32,208,210,211,212,213,67,68,75,77,85,,1.228,0.671,1.029*16
$GPGSA,A,3,2,6,12,17,19,24,25,28,32,,,,,,,,,,,,1.228,0.671,1.029*32
$GLGSA,A,3,67,68,75,77,85,,,,,,,,,,,,,,,,1.228,0.671,1.029*2D
$BDGSA,A,3,208,210,211,212,213,,,,,,,,,,,,,,,,1.228,0.671,1.029*1A
$QZGSA,A,3,,,,,,,,,,,,,,,,,,,,,1.228,0.671,1.029*2D
$GPGSV,7,1,24,2,17,160,28,6,31,130,30,12,42,275,37,15,6,213,19*4E
$GPGSV,7,2,24,17,43,57,36,19,64,76,35,24,67,247,33,25,10,275,27*74
$GPGSV,7,3,24,28,14,88,28,32,14,325,38*45
$GLGSV,7,4,24,67,16,291,32,68,16,342,34,75,36,115,33,76,81,18,37*51
$GLGSV,7,5,24,77,30,307,26,85,47,46,34,86,57,158,36*6C
$BDGSV,7,6,24,202,17,129,21,205,27,158,15,208,42,80,29,210,25,95,23*6C
$BDGSV,7,7,24,211,51,178,26,212,55,70,30,213,40,114,27*52
$GPRMC,103720.00,A,5242.3712,N,04126.6659,E,2.641,341.543,050420,,E,A*11
$GPGGA,103721.00,5242.3719,N,04126.6655,E,1,20,0.633,129.605,M,,M,0,*45
$GNGSA,A,3,2,6,12,17,19,24,25,28,32,205,208,210,211,212,213,67,68,75,77,85,1.200,0.633,1.020*24
$GPGSA,A,3,2,6,12,17,19,24,25,28,32,,,,,,,,,,,,1.200,0.633,1.020*37
$GLGSA,A,3,67,68,75,77,85,,,,,,,,,,,,,,,,1.200,0.633,1.020*28
$BDGSA,A,3,205,208,210,211,212,213,,,,,,,,,,,,,,,1.200,0.633,1.020*28
$QZGSA,A,3,,,,,,,,,,,,,,,,,,,,,1.200,0.633,1.020*28
$GPGSV,7,1,24,2,17,160,24,6,31,130,31,12,42,275,36,15,6,213,18*43
$GPGSV,7,2,24,17,43,57,31,19,64,76,36,24,67,247,36,25,10,275,26*74
$GPGSV,7,3,24,28,14,88,28,32,14,325,38*45
$GLGSV,7,4,24,67,16,291,31,68,16,342,31,75,36,115,36,76,81,18,36*53
$GLGSV,7,5,24,77,30,307,25,85,47,46,35,86,57,158,36*6E
$BDGSV,7,6,24,202,17,129,21,205,27,158,15,208,42,80,32,210,25,95,24*61
$BDGSV,7,7,24,211,51,178,31,212,55,70,31,213,40,114,27*55
$GPRMC,103721.00,A,5242.3719,N,04126.6655,E,2.971,342.200,050420,,E,A*18
$GPGGA,103722.00,5242.3725,N,04126.6650,E,1,20,0.633,129.130,M,,M,0,*4D
$GNGSA,A,3,2,6,12,17,19,24,25,28,32,205,208,210,211,212,213,67,68,75,77,85,1.200,0.633,1.020*24
$GPGSA,A,3,2,6,12,17,19,24,25,28,32,,,,,,,,,,,,1.200,0.633,1.020*37
$GLGSA,A,3,67,68,75,77,85,,,,,,,,,,,,,,,,1.200,0.633,1.020*28
$BDGSA,A,3,205,208,210,211,212,213,,,,,,,,,,,,,,,1.200,0.633,1.020*28
$QZGSA,A,3,,,,,,,,,,,,,,,,,,,,,1.200,0.633,1.020*28
$GPGSV,7,1,24,2,17,160,22,6,31,130,29,12,42,275,35,15,6,213,19*4E
$GPGSV,7,2,24,17,43,57,36,19,64,76,33,24,67,247,37,25,10,275,26*77
$GPGSV,7,3,24,28,14,88,26,32,14,325,38*4B
$GLGSV,7,4,24,67,16,291,32,68,16,342,33,75,36,115,35,76,81,18,37*50
$GLGSV,7,5,24,77,30,307,26,85,47,46,39,86,57,158,37*60
$BDGSV,7,6,24,202,17,129,21,205,27,158,15,208,42,80,31,210,25,95,22*64
$BDGSV,7,7,24,211,51,178,31,212,55,70,33,213,40,114,27*57
$GPRMC,103722.00,A,5242.3725,N,04126.6650,E,2.526,332.183,050420,,E,A*10
$GPGGA,103723.00,5242.3729,N,04126.6643,E,1,19,0.671,129.016,M,,M,0,*4B
$GNGSA,A,3,2,6,12,17,19,24,25,28,32,208,210,211,212,213,67,68,75,77,85,,1.228,0.671,1.029*16
$GPGSA,A,3,2,6,12,17,19,24,25,28,32,,,,,,,,,,,,1.228,0.671,1.029*32
$GLGSA,A,3,67,68,75,77,85,,,,,,,,,,,,,,,,1.228,0.671,1.029*2D
$BDGSA,A,3,208,210,211,212,213,,,,,,,,,,,,,,,,1.228,0.671,1.029*1A
$QZGSA,A,3,,,,,,,,,,,,,,,,,,,,,1.228,0.671,1.029*2D
$GPGSV,7,1,24,2,17,160,25,6,31,130,32,12,42,275,36,15,6,213,19*40
$GPGSV,7,2,24,17,43,57,31,19,64,76,37,24,67,247,34,25,10,275,26*77
$GPGSV,7,3,24,28,14,88,26,32,14,325,37*44
$GLGSV,7,4,24,67,16,291,31,68,16,342,34,75,36,115,33,76,81,18,38*5D
$GLGSV,7,5,24,77,30,307,26,85,47,46,36,86,57,158,37*6F
$BDGSV,7,6,24,202,17,129,21,205,27,158,17,208,42,80,29,210,25,95,26*6B
$BDGSV,7,7,24,211,51,178,31,212,55,70,32,213,40,114,27*56
$GPRMC,103723.00,A,5242.3729,N,04126.6643,E,2.081,316.685,050420,,E,A*10
$GPGGA,103724.00,5242.3732,N,04126.6636,E,1,19,0.671,128.927,M,,M,0,*4E
$GNGSA,A,3,2,6,12,17,19,24,25,28,32,208,210,211,212,213,67,68,75,77,85,,1.228,0.671,1.029*16
$GPGSA,A,3,2,6,12,17,19,24,25,28,32,,,,,,,,,,,,1.228,0.671,1.029*32
$GLGSA,A,3,67,68,75,77,85,,,,,,,,,,,,,,,,1.228,0.671,1.029*2D
$BDGSA,A,3,208,210,211,212,213,,,,,,,,,,,,,,,,1.228,0.671,1.029*1A
$QZGSA,A,3,,,,,,,,,,,,,,,,,,,,,1.228,0.671,1.029*2D
$GPGSV,7,1,24,2,17,160,25,6,31,130,29,12,42,275,35,15,6,213,19*49
$GPGSV,7,2,24,17,43,57,28,19,64,76,37,24,67,247,35,25,10,275,25*7D
$GPGSV,7,3,24,28,14,88,24,32,14,325,38*49
$GLGSV,7,4,24,67,16,291,31,68,16,342,33,75,36,115,31,76,81,18,39*59
$GLGSV,7,5,24,77,30,307,25,85,47,46,31,86,57,158,37*6B
$BDGSV,7,6,24,202,17,129,23,205,27,158,17,208,42,80,26,210,25,95,25*65
$BDGSV,7,7,24,211,51,178,31,212,55,70,34,213,40,114,28*5F
$GPRMC,103724.00,A,5242.3732,N,04126.6636,E,1.308,294.709,050420,,E,A*10
$GPGGA,103725.00,5242.3733,N,04126.6631,E,1,19,0.671,128.801,M,,M,0,*4C
$GNGSA,A,3,2,6,12,17,19,24,25,28,32,208,210,211,212,213,67,68,75,77,85,,1.228,0.671,1.029*16
$GPGSA,A,3,2,6,12,17,19,24,25,28,32,,,,,,,,,,,,1.228,0.671,1.029*32
$GLGSA,A,3,67,68,75,77,85,,,,,,,,,,,,,,,,1.228,0.671,1.029*2D
$BDGSA,A,3,208,210,211,212,213,,,,,,,,,,,,,,,,1.228,0.671,1.029*1A
$QZGSA,A,3,,,,,,,,,,,,,,,,,,,,,1.228,0.671,1.029*2D
$GPGSV,7,1,24,2,17,160,26,6,31,130,28,12,42,275,38,15,6,213,19*46
$GPGSV,7,2,24,17,43,57,31,19,64,76,34,24,67,247,33,25,10,275,26*73
$GPGSV,7,3,24,28,14,88,25,32,14,325,34*44
$GLGSV,7,4,24,67,16,291,32,68,16,342,33,75,36,115,32,76,81,18,35*55
$GLGSV,7,5,24,77,30,307,25,85,47,46,34,86,57,158,36*6F
$BDGSV,7,6,24,202,17,129,23,205,27,158,17,208,42,80,29,210,25,95,23*6C
$BDGSV,7,7,24,211,51,178,31,212,55,70,29,213,40,114,31*5B
$GPRMC,103725.00,A,5242.3733,N,04126.6631,E,0.938,311.441,050420,,E,A*1C
$GPGGA,103726.00,5242.3734,N,04126.6626,E,1,19,0.671,128.536,M,,M,0,*47
$GNGSA,A,3,2,6,12,17,19,24,25,28,32,208,210,211,212,213,67,68,75,77,85,,1.228,0.671,1.029*16
$GPGSA,A,3,2,6,12,17,19,24,25,28,32,,,,,,,,,,,,1.228,0.671,1.029*32
$GLGSA,A,3,67,68,75,77,85,,,,,,,,,,,,,,,,1.228,0.671,1.029*2D
$BDGSA,A,3,208,210,211,212,213,,,,,,,,,,,,,,,,1.228,0.671,1.029*1A
$QZGSA,A,3,,,,,,,,,,,,,,,,,,,,,1.228,0.671,1.029*2D
$GPGSV,7,1,24,2,17,160,24,6,31,130,28,12,42,275,37,15,6,213,19*4B
$GPGSV,7,2,24,17,43,57,38,19,64,76,36,24,67,247,33,25,10,275,23*7D
$GPGSV,7,3,24,28,14,88,24,32,14,325,29*49
$GLGSV,7,4,24,67,16,291,36,68,16,342,32,75,36,115,33,76,81,18,37*53
$GLGSV,7,5,24,77,30,307,26,85,47,46,41,86,57,158,37*6F
$BDGSV,7,6,24,202,17,129,24,205,27,158,17,208,42,80,26,210,25,95,23*64
$BDGSV,7,7,24,211,51,178,31,212,55,70,33,213,40,114,30*51
$GPRMC,103726.00,A,5242.3734,N,04126.6626,E,0.865,316.795,050420,,E,A*1A
$GPGGA,103727.00,5242.3734,N,04126.6626,E,1,19,0.671,128.536,M,,M,0,*46
$GNGSA,A,3,2,6,12,17,19,24,25,28,32,208,210,211,212,213,67,68,75,77,85,,1.228,0.671,1.029*16
$GPGSA,A,3,2,6,12,17,19,24,25,28,32,,,,,,,,,,,,1.228,0.671,1.029*32
$GLGSA,A,3,67,68,75,77,85,,,,,,,,,,,,,,,,1.228,0.671,1.029*2D
$BDGSA,A,3,208,210,211,212,213,,,,,,,,,,,,,,,,1.228,0.671,1.029*1A
$QZGSA,A,3,,,,,,,,,,,,,,,,,,,,,1.228,0.671,1.029*2D
$GPGSV,7,1,24,2,17,159,26,6,31,130,31,12,42,275,32,15,6,213,19*4E
$GPGSV,7,2,24,17,43,57,38,19,64,76,37,24,67,247,37,25,10,275,22*79
$GPGSV,7,3,24,28,14,88,23,32,14,325,29*4E
$GLGSV,7,4,24,67,16,291,38,68,16,342,32,75,36,115,33,76,81,18,36*5C
$GLGSV,7,5,24,77,30,307,23,85,47,46,40,86,57,158,36*6A
$BDGSV,7,6,24,202,17,129,24,205,27,158,18,208,42,80,25,210,25,95,22*69
$BDGSV,7,7,24,211,51,178,33,212,55,70,37,213,40,114,30*57
$GPRMC,103727.00,A,5242.3734,N,04126.6626,E,0.000,316.795,050420,,E,A*10
$GPGGA,103728.00,5242.3735,N,04126.6628,E,1,18,0.683,128.303,M,,M,0,*4A
$GNGSA,A,3,2,6,12,17,19,24,25,28,32,208,210,211,212,213,67,68,75,85,,,1.237,0.683,1.031*1C
$GPGSA,A,3,2,6,12,17,19,24,25,28,32,,,,,,,,,,,,1.237,0.683,1.031*38
$GLGSA,A,3,67,68,75,85,,,,,,,,,,,,,,,,,1.237,0.683,1.031*27
$BDGSA,A,3,208,210,211,212,213,,,,,,,,,,,,,,,,1.237,0.683,1.031*10
$QZGSA,A,3,,,,,,,,,,,,,,,,,,,,,1.237,0.683,1.031*27
$GPGSV,7,1,24,2,17,159,30,6,31,130,38,12,42,275,36,15,6,213,19*44
$GPGSV,7,2,24,17,43,57,37,19,64,76,39,24,67,247,37,25,10,275,21*7B
$GPGSV,7,3,24,28,14,88,26,32,14,325,28*4A
$GLGSV,7,4,24,67,16,291,33,68,16,342,32,75,36,115,32,76,81,18,33*53
$GLGSV,7,5,24,77,30,307,21,85,47,46,39,86,57,158,38*68
$BDGSV,7,6,24,202,17,129,28,205,27,158,18,208,42,80,27,210,25,95,23*66
$BDGSV,7,7,24,211,51,178,37,212,55,70,31,213,40,114,26*52
$GPRMC,103728.00,A,5242.3735,N,04126.6628,E,1.687,316.795,050420,,E,A*18
$GPGGA,103729.00,5242.3737,N,04126.6634,E,1,20,0.633,128.213,M,,M,0,*44
$GNGSA,A,3,2,6,12,17,19,24,25,28,32,205,208,210,211,212,213,67,68,75,77,85,1.200,0.633,1.020*24
$GPGSA,A,3,2,6,12,17,19,24,25,28,32,,,,,,,,,,,,1.200,0.633,1.020*37
$GLGSA,A,3,67,68,75,77,85,,,,,,,,,,,,,,,,1.200,0.633,1.020*28
$BDGSA,A,3,205,208,210,211,212,213,,,,,,,,,,,,,,,1.200,0.633,1.020*28
$QZGSA,A,3,,,,,,,,,,,,,,,,,,,,,1.200,0.633,1.020*28
$GPGSV,7,1,24,2,17,159,32,6,31,130,33,12,42,275,38,15,6,213,23*4A
$GPGSV,7,2,24,17,43,57,35,19,64,76,35,24,67,247,35,25,10,275,24*72
$GPGSV,7,3,24,28,14,88,23,32,14,325,28*4F
$GLGSV,7,4,24,67,16,291,32,68,16,342,29,75,36,115,31,76,81,18,33*5B
$GLGSV,7,5,24,77,30,307,18,85,47,46,33,86,57,158,38*68
$BDGSV,7,6,24,202,17,129,28,205,27,158,23,208,42,80,24,210,25,95,24*6A
$BDGSV,7,7,24,211,51,178,34,212,55,70,32,213,40,114,25*51
$GPRMC,103729.00,A,5242.3737,N,04126.6634,E,1.986,63.458,050420,,E,A*2B
$GPGGA,103730.00,5242.3739,N,04126.6641,E,1,19,0.671,128.204,M,,M,0,*4A
$GNGSA,A,3,2,6,12,17,19,24,25,28,32,208,210,211,212,213,67,68,75,77,85,,1.229,0.671,1.029*17
$GPGSA,A,3,2,6,12,17,19,24,25,28,32,,,,,,,,,,,,1.229,0.671,1.029*33
$GLGSA,A,3,67,68,75,77,85,,,,,,,,,,,,,,,,1.229,0.671,1.029*2C
$BDGSA,A,3,208,210,211,212,213,,,,,,,,,,,,,,,,1.229,0.671,1.029*1B
$QZGSA,A,3,,,,,,,,,,,,,,,,,,,,,1.229,0.671,1.029*2C
$GPGSV,7,1,24,2,17,159,30,6,31,130,28,12,42,275,39,15,5,213,19*49
$GPGSV,7,2,24,17,42,57,34,19,64,76,34,24,67,247,35,25,10,275,25*72
$GPGSV,7,3,24,28,14,88,22,32,14,325,28*4E
$GLGSV,7,4,24,67,16,291,27,68,16,342,23,75,36,115,27,76,81,19,35*55
$GLGSV,7,5,24,77,30,307,19,85,47,46,32,86,57,158,38*68
$BDGSV,7,6,24,202,17,129,25,205,27,158,23,208,43,80,24,210,25,95,24*66
$BDGSV,7,7,24,211,51,178,35,212,55,70,33,213,40,114,22*56
$GPRMC,103730.00,A,5242.3739,N,04126.6641,E,2.085,66.990,050420,,E,A*2A
$GPGGA,103731.00,5242.3743,N,04126.6648,E,1,19,0.671,128.423,M,,M,0,*4C
$GNGSA,A,3,2,6,12,17,19,24,25,28,32,208,210,211,212,213,67,68,75,77,85,,1.229,0.671,1.029*17
$GPGSA,A,3,2,6,12,17,19,24,25,28,32,,,,,,,,,,,,1.229,0.671,1.029*33
$GLGSA,A,3,67,68,75,77,85,,,,,,,,,,,,,,,,1.229,0.671,1.029*2C
$BDGSA,A,3,208,210,211,212,213,,,,,,,,,,,,,,,,1.229,0.671,1.029*1B
$QZGSA,A,3,,,,,,,,,,,,,,,,,,,,,1.229,0.671,1.029*2C
$GPGSV,7,1,24,2,17,159,32,6,31,130,26,12,42,275,38,15,5,213,21*4F
$GPGSV,7,2,24,17,42,57,33,19,64,76,36,24,67,247,36,25,10,275,27*76
$GPGSV,7,3,24,28,14,88,19,32,14,325,29*47
$GLGSV,7,4,24,67,16,291,30,68,16,342,23,75,36,115,28,76,81,19,34*5D
$GLGSV,7,5,24,77,30,307,18,85,47,45,30,86,57,158,32*62
$BDGSV,7,6,24,202,17,129,25,205,27,158,28,208,43,80,27,210,25,95,19*60
$BDGSV,7,7,24,211,51,178,35,212,55,70,33,213,40,114,24*50
$GPRMC,103731.00,A,5242.3743,N,04126.6648,E,2.446,42.655,050420,,E,A*24
$GPGGA,103732.00,5242.3748,N,04126.6652,E,1,19,0.671,128.921,M,,M,0,*40
$GNGSA,A,3,2,6,12,17,19,24,25,28,32,208,210,211,212,213,67,68,75,77,85,,1.229,0.671,1.029*17
$GPGSA,A,3,2,6,12,17,19,24,25,28,32,,,,,,,,,,,,1.229,0.671,1.029*33
$GLGSA,A,3,67,68,75,77,85,,,,,,,,,,,,,,,,1.229,0.671,1.029*2C
$BDGSA,A,3,208,210,211,212,213,,,,,,,,,,,,,,,,1.229,0.671,1.029*1B
$QZGSA,A,3,,,,,,,,,,,,,,,,,,,,,1.229,0.671,1.029*2C
$GPGSV,7,1,24,2,17,159,30,6,31,130,24,12,42,275,39,15,5,213,20*4F
$GPGSV,7,2,24,17,42,57,27,19,64,76,35,24,67,247,35,25,10,275,23*77
$GPGSV,7,3,24,28,14,88,26,32,14,325,26*44
$GLGSV,7,4,24,67,16,291,34,68,16,342,20,75,36,115,28,76,81,19,32*5C
$GLGSV,7,5,24,77,30,307,15,85,47,45,25,86,58,158,33*65
$BDGSV,7,6,24,202,17,129,25,205,27,158,28,208,43,80,27,210,25,95,20*6A
$BDGSV,7,7,24,211,51,178,34,212,55,70,32,213,40,114,28*5C
$GPRMC,103732.00,A,5242.3748,N,04126.6652,E,2.022,20.207,050420,,E,A*26
$GPGGA,103733.00,5242.3752,N,04126.6649,E,1,19,0.671,129.334,M,,M,0,*4F
$GNGSA,A,3,2,6,12,17,19,24,25,28,32,208,210,211,212,213,67,68,75,77,85,,1.229,0.671,1.030*1F
$GPGSA,A,3,2,6,12,17,19,24,25,28,32,,,,,,,,,,,,1.229,0.671,1.030*3B
$GLGSA,A,3,67,68,75,77,85,,,,,,,,,,,,,,,,1.229,0.671,1.030*24
$BDGSA,A,3,208,210,211,212,213,,,,,,,,,,,,,,,,1.229,0.671,1.030*13
$QZGSA,A,3,,,,,,,,,,,,,,,,,,,,,1.229,0.671,1.030*24
$GPGSV,7,1,24,2,17,159,26,6,31,130,27,12,42,275,41,15,5,213,19*4E
$GPGSV,7,2,24,17,42,57,22,19,64,76,36,24,67,247,36,25,10,275,21*70
$GPGSV,7,3,24,28,14,88,25,32,14,325,26*47
$GLGSV,7,4,24,67,16,291,30,68,16,342,19,75,36,115,29,76,81,19,34*55
$GLGSV,7,5,24,77,30,307,14,85,47,45,23,86,58,158,30*61
$BDGSV,7,6,24,202,17,129,25,205,27,158,23,208,43,80,25,210,25,95,19*69
$BDGSV,7,7,24,211,51,178,30,212,55,70,27,213,40,114,24*50
$GPRMC,103733.00,A,5242.3752,N,04126.6649,E,1.833,20.207,050420,,E,A*2D
$GPGGA,103734.00,5242.3754,N,04126.6643,E,1,19,0.671,129.836,M,,M,0,*4D
$GNGSA,A,3,2,6,12,17,19,24,25,28,32,208,210,211,212,213,67,68,75,77,85,,1.229,0.671,1.030*1F
$GPGSA,A,3,2,6,12,17,19,24,25,28,32,,,,,,,,,,,,1.229,0.671,1.030*3B
$GLGSA,A,3,67,68,75,77,85,,,,,,,,,,,,,,,,1.229,0.671,1.030*24
$BDGSA,A,3,208,210,211,212,213,,,,,,,,,,,,,,,,1.229,0.671,1.030*13
$QZGSA,A,3,,,,,,,,,,,,,,,,,,,,,1.229,0.671,1.030*24
$GPGSV,7,1,24,2,17,159,28,6,31,130,25,12,42,275,35,15,5,213,19*41
$GPGSV,7,2,24,17,42,57,25,19,64,76,36,24,67,247,36,25,10,275,21*77
$GPGSV,7,3,24,28,14,88,24,32,14,325,28*48
$GLGSV,7,4,24,67,16,291,28,68,16,342,18,75,36,115,28,76,81,19,33*5B
$GLGSV,7,5,24,77,30,307,16,85,47,45,21,86,58,158,34*65
$BDGSV,7,6,24,202,17,129,25,205,27,158,23,208,43,80,23,210,25,95,25*60
$BDGSV,7,7,24,211,51,178,27,212,55,70,29,213,40,114,27*5B
$GPRMC,103734.00,A,5242.3754,N,04126.6643,E,1.253,20.207,050420,,E,A*2A
$GPGGA,103735.00,5242.3751,N,04126.6636,E,1,19,0.671,130.438,M,,M,0,*41
$GNGSA,A,3,2,6,12,17,19,24,25,28,32,208,210,211,212,213,67,68,75,77,85,,1.229,0.671,1.030*1F
$GPGSA,A,3,2,6,12,17,19,24,25,28,32,,,,,,,,,,,,1.229,0.671,1.030*3B
$GLGSA,A,3,67,68,75,77,85,,,,,,,,,,,,,,,,1.229,0.671,1.030*24
$BDGSA,A,3,208,210,211,212,213,,,,,,,,,,,,,,,,1.229,0.671,1.030*13
$QZGSA,A,3,,,,,,,,,,,,,,,,,,,,,1.229,0.671,1.030*24
$GPGSV,7,1,24,2,17,159,23,6,31,130,26,12,42,275,38,15,5,213,22*4C
$GPGSV,7,2,24,17,42,57,27,19,64,76,34,24,67,247,37,25,10,275,21*76
$GPGSV,7,3,24,28,14,88,24,32,14,325,32*43
$GLGSV,7,4,24,67,16,291,32,68,16,342,20,75,36,115,25,76,81,19,37*52
$GLGSV,7,5,24,77,30,307,24,85,47,45,25,86,58,158,26*63
$BDGSV,7,6,24,202,17,129,25,205,27,158,21,208,43,80,25,210,25,95,18*6A
$BDGSV,7,7,24,211,51,178,28,212,55,70,32,213,40,114,21*58
$GPRMC,103735.00,A,5242.3751,N,04126.6636,E,2.309,224.351,050420,,E,A*15
$GPGGA,103736.00,5242.3746,N,04126.6626,E,1,19,0.671,130.883,M,,M,0,*49
$GNGSA,A,3,2,6,12,17,19,24,25,28,32,208,210,211,212,213,67,68,75,77,85,,1.229,0.671,1.030*1F
$GPGSA,A,3,2,6,12,17,19,24,25,28,32,,,,,,,,,,,,1.229,0.671,1.030*3B
$GLGSA,A,3,67,68,75,77,85,,,,,,,,,,,,,,,,1.229,0.671,1.030*24
$BDGSA,A,3,208,210,211,212,213,,,,,,,,,,,,,,,,1.229,0.671,1.030*13
$QZGSA,A,3,,,,,,,,,,,,,,,,,,,,,1.229,0.671,1.030*24
$GPGSV,7,1,24,2,17,159,23,6,31,130,22,12,42,275,36,15,5,213,19*4E
$GPGSV,7,2,24,17,42,57,31,19,64,76,34,24,67,247,38,25,10,275,25*7A
$GPGSV,7,3,24,28,13,88,22,32,14,325,33*43
$GLGSV,7,4,24,67,16,291,32,68,16,342,19,75,36,115,24,76,81,19,36*58
$GLGSV,7,5,24,77,30,307,25,85,47,45,32,86,58,158,29*6B
$BDGSV,7,6,24,202,17,129,20,205,27,158,21,208,43,80,25,210,25,95,21*65
$BDGSV,7,7,24,211,51,178,29,212,55,70,33,213,40,114,24*5D
$GPRMC,103736.00,A,5242.3746,N,04126.6626,E,2.945,234.962,050420,,E,A*18
$GPGGA,103737.00,5242.3738,N,04126.6612,E,1,20,0.633,130.937,M,,M,0,*44
$GNGSA,A,3,2,6,12,17,19,24,25,28,32,205,208,210,211,212,213,67,68,75,77,85,1.201,0.633,1.020*25
$GPGSA,A,3,2,6,12,17,19,24,25,28,32,,,,,,,,,,,,1.201,0.633,1.020*36
$GLGSA,A,3,67,68,75,77,85,,,,,,,,,,,,,,,,1.201,0.633,1.020*29
$BDGSA,A,3,205,208,210,211,212,213,,,,,,,,,,,,,,,1.201,0.633,1.020*29
$QZGSA,A,3,,,,,,,,,,,,,,,,,,,,,1.201,0.633,1.020*29
$GPGSV,7,1,24,2,17,159,31,6,31,130,22,12,42,275,36,15,5,213,20*47
$GPGSV,7,2,24,17,42,57,36,19,64,76,35,24,67,246,38,25,10,275,27*7F
$GPGSV,7,3,24,28,13,88,18,32,14,325,32*4B
$GLGSV,7,4,24,67,16,291,29,68,16,342,23,75,36,115,25,76,81,19,37*5B
$GLGSV,7,5,24,77,30,307,25,85,47,45,38,86,58,158,29*61
$BDGSV,7,6,24,202,17,129,20,205,27,158,24,208,43,80,25,210,25,95,22*63
$BDGSV,7,7,24,211,51,178,33,212,55,70,34,213,40,114,21*54
$GPRMC,103737.00,A,5242.3738,N,04126.6612,E,4.028,222.561,050420,,E,A*1B
$GPGGA,103738.00,5242.3729,N,04126.6600,E,1,20,0.633,131.061,M,,M,0,*43
$GNGSA,A,3,2,6,12,17,19,24,25,28,32,205,208,210,211,212,213,67,68,75,77,85,1.201,0.633,1.020*25
$GPGSA,A,3,2,6,12,17,19,24,25,28,32,,,,,,,,,,,,1.201,0.633,1.020*36
$GLGSA,A,3,67,68,75,77,85,,,,,,,,,,,,,,,,1.201,0.633,1.020*29
$BDGSA,A,3,205,208,210,211,212,213,,,,,,,,,,,,,,,1.201,0.633,1.020*29
$QZGSA,A,3,,,,,,,,,,,,,,,,,,,,,1.201,0.633,1.020*29
$GPGSV,7,1,24,2,17,159,30,6,31,130,24,12,42,275,35,15,5,213,18*48
$GPGSV,7,2,24,17,42,57,36,19,64,76,35,24,67,246,36,25,10,275,30*77
$GPGSV,7,3,24,28,13,88,21,32,14,325,28*4A
$GLGSV,7,4,24,67,16,291,30,68,16,342,23,75,36,115,25,76,81,19,37*53
$GLGSV,7,5,24,77,30,307,24,85,47,45,38,86,58,158,34*6C
$BDGSV,7,6,24,202,17,129,18,205,27,158,24,208,43,80,24,210,25,95,22*69
$BDGSV,7,7,24,211,51,178,33,212,55,70,32,213,40,114,22*51
$GPRMC,103738.00,A,5242.3729,N,04126.6600,E,3.367,214.479,050420,,E,A*15
$GPGGA,103739.00,5242.3722,N,04126.6592,E,1,21,0.631,131.447,M,,M,0,*42
$GNGSA,A,3,2,6,12,17,19,24,25,28,32,205,208,210,211,212,213,67,68,75,76,77,1.124,0.631,0.930*26
$GPGSA,A,3,2,6,12,17,19,24,25,28,32,,,,,,,,,,,,1.124,0.631,0.930*39
$GLGSA,A,3,67,68,75,76,77,85,,,,,,,,,,,,,,,1.124,0.631,0.930*27
$BDGSA,A,3,205,208,210,211,212,213,,,,,,,,,,,,,,,1.124,0.631,0.930*26
$QZGSA,A,3,,,,,,,,,,,,,,,,,,,,,1.124,0.631,0.930*26
$GPGSV,7,1,24,2,17,159,27,6,31,130,26,12,42,275,31,15,5,213,18*48
$GPGSV,7,2,24,17,42,57,37,19,64,76,35,24,67,246,36,25,10,275,25*72
$GPGSV,7,3,24,28,13,88,21,32,14,325,27*45
$GLGSV,7,4,24,67,16,291,34,68,16,342,31,75,36,115,27,76,81,24,37*58
$GLGSV,7,5,24,77,30,307,25,85,47,45,38,86,58,158,33*6A
$BDGSV,7,6,24,202,17,129,18,205,27,158,25,208,43,80,24,210,25,95,25*6F
$BDGSV,7,7,24,211,51,178,30,212,55,70,32,213,40,114,24*54
$GPRMC,103739.00,A,5242.3722,N,04126.6592,E,2.260,214.930,050420,,E,A*10
$GPGGA,103740.00,5242.3719,N,04126.6588,E,1,21,0.631,130.816,M,,M,0,*46
$GNGSA,A,3,2,6,12,17,19,24,25,28,32,205,208,210,211,212,213,67,68,75,76,77,1.124,0.631,0.930*26
$GPGSA,A,3,2,6,12,17,19,24,25,28,32,,,,,,,,,,,,1.124,0.631,0.930*39
$GLGSA,A,3,67,68,75,76,77,85,,,,,,,,,,,,,,,1.124,0.631,0.930*27
$BDGSA,A,3,205,208,210,211,212,213,,,,,,,,,,,,,,,1.124,0.631,0.930*26
$QZGSA,A,3,,,,,,,,,,,,,,,,,,,,,1.124,0.631,0.930*26
$GPGSV,7,1,24,2,17,159,29,6,31,130,32,12,42,275,33,15,5,213,20*4A
$GPGSV,7,2,24,17,42,57,38,19,64,76,36,24,67,246,36,25,10,275,25*7E
$GPGSV,7,3,24,28,13,88,20,32,14,325,26*45
$GLGSV,7,4,24,67,16,291,33,68,16,342,34,75,36,115,29,76,81,24,37*54
$GLGSV,7,5,24,77,30,307,24,85,47,45,40,86,58,158,33*64
$BDGSV,7,6,24,202,17,129,20,205,27,158,25,208,43,80,26,210,25,95,23*60
$BDGSV,7,7,24,211,51,178,33,212,55,70,34,213,40,114,26*53
$GPRMC,103740.00,A,5242.3719,N,04126.6588,E,0.000,214.930,050420,,E,A*1B
$GPGGA,103741.00,5242.3722,N,04126.6589,E,1,21,0.631,130.152,M,,M,0,*47
$GNGSA,A,3,2,6,12,17,19,24,25,28,32,205,208,210,211,212,213,67,68,75,76,77,1.124,0.631,0.930*26
$GPGSA,A,3,2,6,12,17,19,24,25,28,32,,,,,,,,,,,,1.124,0.631,0.930*39
$GLGSA,A,3,67,68,75,76,77,85,,,,,,,,,,,,,,,1.124,0.631,0.930*27
$BDGSA,A,3,205,208,210,211,212,213,,,,,,,,,,,,,,,1.124,0.631,0.930*26
$QZGSA,A,3,,,,,,,,,,,,,,,,,,,,,1.124,0.631,0.930*26
$GPGSV,7,1,24,2,17,159,27,6,31,130,30,12,42,275,32,15,5,213,18*4C
$GPGSV,7,2,24,17,42,57,38,19,64,76,35,24,67,246,32,25,10,275,23*7F
$GPGSV,7,3,24,28,13,88,25,32,14,325,26*40
$GLGSV,7,4,24,67,16,291,35,68,16,342,29,75,36,115,30,76,81,24,37*56
$GLGSV,7,5,24,77,30,307,22,85,47,45,37,86,58,158,38*69
$BDGSV,7,6,24,202,17,129,20,205,27,158,22,208,43,80,32,210,25,95,23*62
$BDGSV,7,7,24,211,51,178,34,212,55,70,34,213,40,114,29*5B
$GPRMC,103741.00,A,5242.3722,N,04126.6589,E,1.671,214.930,050420,,E,A*12
$GPGGA,103742.00,5242.3728,N,04126.6590,E,1,21,0.631,129.747,M,,M,0,*4C
$GNGSA,A,3,2,6,12,17,19,24,25,28,32,205,208,210,211,212,213,67,68,75,76,77,1.124,0.631,0.930*26
$GPGSA,A,3,2,6,12,17,19,24,25,28,32,,,,,,,,,,,,1.124,0.631,0.930*39
$GLGSA,A,3,67,68,75,76,77,85,,,,,,,,,,,,,,,1.124,0.631,0.930*27
$BDGSA,A,3,205,208,210,211,212,213,,,,,,,,,,,,,,,1.124,0.631,0.930*26
$QZGSA,A,3,,,,,,,,,,,,,,,,,,,,,1.124,0.631,0.930*26
$GPGSV,7,1,24,2,17,159,25,6,31,130,31,12,42,275,31,15,5,213,19*4D
$GPGSV,7,2,24,17,42,57,38,19,64,76,35,24,67,246,33,25,10,275,22*7F
$GPGSV,7,3,24,28,13,88,21,32,14,325,27*45
$GLGSV,7,4,24,67,16,291,29,68,16,342,26,75,36,115,32,76,81,24,35*54
$GLGSV,7,5,24,77,30,307,21,85,47,45,39,86,58,158,36*6A
$BDGSV,7,6,24,202,17,129,19,205,27,158,22,208,43,80,31,210,25,95,25*6D
$BDGSV,7,7,24,211,51,178,34,212,55,70,33,213,40,114,28*5D
$GPRMC,103742.00,A,5242.3728,N,04126.6590,E,2.100,350.779,050420,,E,A*13
$GPGGA,103743.00,5242.3734,N,04126.6589,E,1,21,0.631,129.115,M,,M,0,*49
$GNGSA,A,3,2,6,12,17,19,24,25,28,32,205,208,210,211,212,213,67,68,75,76,77,1.124,0.631,0.930*26
$GPGSA,A,3,2,6,12,17,19,24,25,28,32,,,,,,,,,,,,1.124,0.631,0.930*39
$GLGSA,A,3,67,68,75,76,77,85,,,,,,,,,,,,,,,1.124,0.631,0.930*27
$BDGSA,A,3,205,208,210,211,212,213,,,,,,,,,,,,,,,1.124,0.631,0.930*26
$QZGSA,A,3,,,,,,,,,,,,,,,,,,,,,1.124,0.631,0.930*26
$GPGSV,7,1,24,2,17,159,24,6,31,130,30,12,42,275,30,15,5,213,19*4C
$GPGSV,7,2,24,17,42,57,38,19,64,75,36,24,67,246,34,25,10,275,22*78
$GPGSV,7,3,24,28,13,88,25,32,14,325,27*41
$GLGSV,7,4,24,67,16,291,25,68,16,342,25,75,36,115,28,76,81,24,33*56
$GLGSV,7,5,24,77,30,307,22,85,47,45,38,86,58,158,37*69
$BDGSV,7,6,24,202,17,129,19,205,27,158,22,208,43,80,32,210,25,95,27*6C
$BDGSV,7,7,24,211,51,178,33,212,55,70,35,213,40,114,26*52
$GPRMC,103743.00,A,5242.3734,N,04126.6589,E,1.401,350.779,050420,,E,A*10
$GPGGA,103744.00,5242.3739,N,04126.6587,E,1,21,0.631,128.219,M,,M,0,*43
$GNGSA,A,3,2,6,12,17,19,24,25,28,32,205,208,210,211,212,213,67,68,75,76,77,1.124,0.631,0.930*26
$GPGSA,A,3,2,6,12,17,19,24,25,28,32,,,,,,,,,,,,1.124,0.631,0.930*39
$GLGSA,A,3,67,68,75,76,77,85,,,,,,,,,,,,,,,1.124,0.631,0.930*27
$BDGSA,A,3,205,208,210,211,212,213,,,,,,,,,,,,,,,1.124,0.631,0.930*26
$QZGSA,A,3,,,,,,,,,,,,,,,,,,,,,1.124,0.631,0.930*26
$GPGSV,7,1,24,2,17,159,25,6,31,130,29,12,42,275,30,15,5,213,18*44
$GPGSV,7,2,24,17,42,57,33,19,64,75,37,24,67,246,32,25,10,275,21*77
$GPGSV,7,3,24,28,13,88,25,32,14,325,27*41
$GLGSV,7,4,24,67,16,291,27,68,16,342,28,75,36,115,35,76,81,24,35*53
$GLGSV,7,5,24,77,30,307,24,85,47,45,30,86,58,158,35*65
$BDGSV,7,6,24,202,17,129,18,205,27,158,22,208,43,80,35,210,25,95,26*6B
$BDGSV,7,7,24,211,51,178,32,212,55,70,34,213,40,114,29*5D
$GPRMC,103744.00,A,5242.3739,N,04126.6587,E,1.914,326.806,050420,,E,A*1B
$GPGGA,103745.00,5242.3747,N,04126.6582,E,1,21,0.631,127.915,M,,M,0,*46
$GNGSA,A,3,2,6,12,17,19,24,25,28,32,205,208,210,211,212,213,67,68,75,76,77,1.124,0.631,0.930*26
$GPGSA,A,3,2,6,12,17,19,24,25,28,32,,,,,,,,,,,,1.124,0.631,0.930*39
$GLGSA,A,3,67,68,75,76,77,85,,,,,,,,,,,,,,,1.124,0.631,0.930*27
$BDGSA,A,3,205,208,210,211,212,213,,,,,,,,,,,,,,,1.124,0.631,0.930*26
$QZGSA,A,3,,,,,,,,,,,,,,,,,,,,,1.124,0.631,0.930*26
$GPGSV,7,1,24,2,17,159,25,6,31,130,31,12,42,275,31,15,5,213,24*43
$GPGSV,7,2,24,17,42,57,29,19,64,75,33,24,67,246,32,25,10,275,20*79
$GPGSV,7,3,24,28,13,88,24,32,14,325,26*41
$GLGSV,7,4,24,67,16,291,27,68,16,342,29,75,36,115,34,76,81,24,33*55
$GLGSV,7,5,24,77,30,307,24,85,47,45,29,86,58,158,36*6E
$BDGSV,7,6,24,202,17,129,18,205,27,158,22,208,43,80,33,210,25,95,30*6A
$BDGSV,7,7,24,211,51,178,31,212,55,70,33,213,40,114,31*50
$GPRMC,103745.00,A,5242.3747,N,04126.6582,E,2.136,320.773,050420,,E,A*16
$GPGGA,103746.00,5242.3754,N,04126.6577,E,1,21,0.631,127.923,M,,M,0,*48
$GNGSA,A,3,2,6,12,17,19,24,25,28,32,205,208,210,211,212,213,67,68,75,76,77,1.124,0.631,0.930*26
$GPGSA,A,3,2,6,12,17,19,24,25,28,32,,,,,,,,,,,,1.124,0.631,0.930*39
$GLGSA,A,3,67,68,75,76,77,85,,,,,,,,,,,,,,,1.124,0.631,0.930*27
$BDGSA,A,3,205,208,210,211,212,213,,,,,,,,,,,,,,,1.124,0.631,0.930*26
$QZGSA,A,3,,,,,,,,,,,,,,,,,,,,,1.124,0.631,0.930*26
$GPGSV,7,1,24,2,17,159,26,6,31,130,33,12,42,275,31,15,5,213,24*42
$GPGSV,7,2,24,17,42,57,27,19,64,75,37,24,67,246,32,25,10,275,22*71
$GPGSV,7,3,24,28,13,88,26,32,14,325,23*46
$GLGSV,7,4,24,67,16,291,26,68,16,342,27,75,36,115,37,76,81,24,35*5F
$GLGSV,7,5,24,77,30,307,25,85,47,45,32,86,58,158,36*65
$BDGSV,7,6,24,202,17,129,18,205,27,158,22,208,43,80,33,210,25,95,29*62
$BDGSV,7,7,24,211,51,178,32,212,55,70,35,213,40,114,30*54
$GPRMC,103746.00,A,5242.3754,N,04126.6577,E,2.206,323.848,050420,,E,A*19
$GPGGA,103747.00,5242.3762,N,04126.6572,E,1,21,0.631,128.163,M,,M,0,*4A
$GNGSA,A,3,2,6,12,17,19,24,25,28,32,205,208,210,211,212,213,67,68,75,76,77,1.124,0.631,0.930*26
$GPGSA,A,3,2,6,12,17,19,24,25,28,32,,,,,,,,,,,,1.124,0.631,0.930*39
$GLGSA,A,3,67,68,75,76,77,85,,,,,,,,,,,,,,,1.124,0.631,0.930*27
$BDGSA,A,3,205,208,210,211,212,213,,,,,,,,,,,,,,,1.124,0.631,0.930*26
$QZGSA,A,3,,,,,,,,,,,,,,,,,,,,,1.124,0.631,0.930*26
$GPGSV,7,1,24,2,17,159,27,6,31,130,33,12,42,275,33,15,5,213,25*40
$GPGSV,7,2,24,17,42,57,28,19,64,75,38,24,67,246,35,25,10,275,21*75
$GPGSV,7,3,24,28,13,88,24,32,14,325,21*46
$GLGSV,7,4,24,67,16,291,28,68,16,342,25,75,36,115,37,76,81,24,34*52
$GLGSV,7,5,24,77,30,307,23,85,47,45,35,86,58,158,35*67
$BDGSV,7,6,24,202,17,129,18,205,27,158,21,208,43,80,30,210,25,95,31*6B
$BDGSV,7,7,24,211,51,178,35,212,55,70,37,213,40,114,32*53
$GPRMC,103747.00,A,5242.3762,N,04126.6572,E,2.504,328.804,050420,,E,A*1E
$GPGGA,103748.00,5242.3769,N,04126.6568,E,1,21,0.631,128.754,M,,M,0,*47
$GNGSA,A,3,2,6,12,17,19,24,25,28,32,205,208,210,211,212,213,67,68,75,76,77,1.124,0.631,0.930*26
$GPGSA,A,3,2,6,12,17,19,24,25,28,32,,,,,,,,,,,,1.124,0.631,0.930*39
$GLGSA,A,3,67,68,75,76,77,85,,,,,,,,,,,,,,,1.124,0.631,0.930*27
$BDGSA,A,3,205,208,210,211,212,213,,,,,,,,,,,,,,,1.124,0.631,0.930*26
$QZGSA,A,3,,,,,,,,,,,,,,,,,,,,,1.124,0.631,0.930*26
$GPGSV,7,1,24,2,17,159,25,6,31,130,32,12,42,275,31,15,5,213,25*41
$GPGSV,7,2,24,17,42,57,32,19,64,75,39,24,67,246,32,25,10,275,19*73
$GPGSV,7,3,24,28,13,88,22,32,14,325,25*44
$GLGSV,7,4,24,67,16,291,32,68,16,342,27,75,36,115,38,76,81,24,34*54
$GLGSV,7,5,24,77,30,307,22,85,47,45,39,86,58,158,35*6A
$BDGSV,7,6,24,202,17,129,18,205,27,158,21,208,43,80,25,210,25,95,28*67
$BDGSV,7,7,24,211,51,178,34,212,55,70,38,213,40,114,34*5B
$GPRMC,103748.00,A,5242.3769,N,04126.6568,E,2.270,322.867,050420,,E,A*1A
$GPGGA,103749.00,5242.3776,N,04126.6562,E,1,21,0.631,129.070,M,,M,0,*42
$GNGSA,A,3,2,6,12,17,19,24,25,28,32,205,208,210,211,212,213,67,68,75,76,77,1.124,0.631,0.930*26
$GPGSA,A,3,2,6,12,17,19,24,25,28,32,,,,,,,,,,,,1.124,0.631,0.930*39
$GLGSA,A,3,67,68,75,76,77,85,,,,,,,,,,,,,,,1.124,0.631,0.930*27
$BDGSA,A,3,205,208,210,211,212,213,,,,,,,,,,,,,,,1.124,0.631,0.930*26
$QZGSA,A,3,,,,,,,,,,,,,,,,,,,,,1.124,0.631,0.930*26
$GPGSV,7,1,24,2,17,159,27,6,31,130,32,12,42,275,34,15,5,213,23*40
$GPGSV,7,2,24,17,42,57,36,19,64,75,38,24,67,246,34,25,10,275,22*78
$GPGSV,7,3,24,28,13,88,22,32,14,325,19*4B
$GLGSV,7,4,24,67,16,291,32,68,16,342,22,75,36,115,39,76,81,24,32*56
$GLGSV,7,5,24,77,30,307,24,85,47,45,40,86,58,158,37*60
$BDGSV,7,6,24,202,17,129,18,205,27,158,21,208,43,80,22,210,25,95,28*60
$BDGSV,7,7,24,211,52,178,33,212,55,70,37,213,40,114,32*56
$GPRMC,103749.00,A,5242.3776,N,04126.6562,E,2.213,319.569,050420,,E,A*11
$GPGGA,103750.00,5242.3782,N,04126.6556,E,1,21,0.631,129.149,M,,M,0,*4D
$GNGSA,A,3,2,6,12,17,19,24,25,28,32,205,208,210,211,212,213,67,68,75,76,77,1.124,0.631,0.930*26
$GPGSA,A,3,2,6,12,17,19,24,25,28,32,,,,,,,,,,,,1.124,0.631,0.930*39
$GLGSA,A,3,67,68,75,76,77,85,,,,,,,,,,,,,,,1.124,0.631,0.930*27
$BDGSA,A,3,205,208,210,211,212,213,,,,,,,,,,,,,,,1.124,0.631,0.930*26
$QZGSA,A,3,,,,,,,,,,,,,,,,,,,,,1.124,0.631,0.930*26
$GPGSV,7,1,24,2,17,159,25,6,31,130,33,12,42,275,36,15,5,213,22*40
$GPGSV,7,2,24,17,42,57,36,19,64,75,40,24,67,246,35,25,10,275,19*7E
$GPGSV,7,3,24,28,13,88,19,32,14,325,18*42
$GLGSV,7,4,24,67,16,291,29,68,16,342,20,75,36,115,38,76,81,24,34*59
$GLGSV,7,5,24,77,30,307,22,85,47,45,39,86,58,158,37*68
$BDGSV,7,6,24,202,17,129,18,205,27,158,21,208,43,80,22,210,25,95,22*6A
$BDGSV,7,7,24,211,52,178,33,212,55,70,36,213,40,114,32*57
$GPRMC,103750.00,A,5242.3782,N,04126.6556,E,1.800,315.590,050420,,E,A*14
$GPGGA,103751.00,5242.3786,N,04126.6552,E,1,21,0.631,129.528,M,,M,0,*4F
$GNGSA,A,3,2,6,12,17,19,24,25,28,32,205,208,210,211,212,213,67,68,75,76,77,1.124,0.631,0.930*26
$GPGSA,A,3,2,6,12,17,19,24,25,28,32,,,,,,,,,,,,1.124,0.631,0.930*39
$GLGSA,A,3,67,68,75,76,77,85,,,,,,,,,,,,,,,1.124,0.631,0.930*27
$BDGSA,A,3,205,208,210,211,212,213,,,,,,,,,,,,,,,1.124,0.631,0.930*26
$QZGSA,A,3,,,,,,,,,,,,,,,,,,,,,1.124,0.631,0.930*26
$GPGSV,7,1,24,2,17,159,26,6,31,130,31,12,42,275,31,15,5,213,23*47
$GPGSV,7,2,24,17,42,57,35,19,64,75,39,24,67,246,35,25,10,275,20*79
$GPGSV,7,3,24,28,13,88,18,32,14,325,21*49
$GLGSV,7,4,24,67,16,291,31,68,16,342,18,75,36,115,36,76,81,24,34*55
$GLGSV,7,5,24,77,30,307,20,85,47,45,41,86,58,158,37*65
$BDGSV,7,6,24,202,17,129,18,205,27,158,20,208,43,80,30,210,25,95,22*68
$BDGSV,7,7,24,211,52,178,32,212,55,70,36,213,40,114,30*54
$GPRMC,103751.00,A,5242.3786,N,04126.6552,E,0.508,315.411,050420,,E,A*19
$GPGGA,103752.00,5242.3788,N,04126.6554,E,1,21,0.631,129.619,M,,M,0,*45
$GNGSA,A,3,2,6,12,17,19,24,25,28,32,205,208,210,211,212,213,67,68,75,76,77,1.124,0.631,0.930*26
$GPGSA,A,3,2,6,12,17,19,24,25,28,32,,,,,,,,,,,,1.124,0.631,0.930*39
$GLGSA,A,3,67,68,75,76,77,85,,,,,,,,,,,,,,,1.124,0.631,0.930*27
$BDGSA,A,3,205,208,210,211,212,213,,,,,,,,,,,,,,,1.124,0.631,0.930*26
$QZGSA,A,3,,,,,,,,,,,,,,,,,,,,,1.124,0.631,0.930*26
$GPGSV,7,1,24,2,17,159,27,6,31,130,33,12,42,275,36,15,5,213,20*40
$GPGSV,7,2,24,17,42,57,29,19,64,75,39,24,67,246,35,25,10,275,20*74
$GPGSV,7,3,24,28,13,88,19,32,14,325,21*48
$GLGSV,7,4,24,67,16,291,25,68,16,342,20,75,36,115,41,76,81,24,35*5A
$GLGSV,7,5,24,77,30,307,15,85,47,45,37,86,58,158,36*63
$BDGSV,7,6,24,202,17,129,18,205,27,158,20,208,43,80,32,210,25,95,24*6C
$BDGSV,7,7,24,211,52,178,32,212,55,70,36,213,40,114,31*55
$GPRMC,103752.00,A,5242.3788,N,04126.6554,E,0.837,315.411,050420,,E,A*13
$GPGGA,103753.00,5242.3792,N,04126.6555,E,1,21,0.631,129.880,M,,M,0,*40
$GNGSA,A,3,2,6,12,17,19,24,25,28,32,205,208,210,211,212,213,67,68,75,76,77,1.124,0.631,0.930*26
$GPGSA,A,3,2,6,12,17,19,24,25,28,32,,,,,,,,,,,,1.124,0.631,0.930*39
$GLGSA,A,3,67,68,75,76,77,85,,,,,,,,,,,,,,,1.124,0.631,0.930*27
$BDGSA,A,3,205,208,210,211,212,213,,,,,,,,,,,,,,,1.124,0.631,0.930*26
$QZGSA,A,3,,,,,,,,,,,,,,,,,,,,,1.124,0.631,0.930*26
$GPGSV,7,1,24,2,17,159,31,6,31,130,39,12,43,275,39,15,5,213,20*43
$GPGSV,7,2,24,17,42,57,29,19,64,75,34,24,67,246,35,25,10,275,20*79
$GPGSV,7,3,24,28,13,88,19,32,14,325,21*48
$GLGSV,7,4,24,67,16,291,25,68,16,342,23,75,36,115,40,76,81,25,36*5A
$GLGSV,7,5,24,77,30,307,15,85,47,45,36,86,58,158,40*63
$BDGSV,7,6,24,202,17,129,18,205,27,158,28,208,43,80,28,210,25,95,22*69
$BDGSV,7,7,24,211,52,178,35,212,55,70,30,213,40,114,34*51
$GPRMC,103753.00,A,5242.3792,N,04126.6555,E,1.536,315.411,050420,,E,A*15
$GPGGA,103754.00,5242.3796,N,04126.6562,E,1,21,0.631,130.301,M,,M,0,*4D
$GNGSA,A,3,2,6,12,17,19,24,25,28,32,205,208,210,211,212,213,67,68,75,76,77,1.124,0.631,0.930*26
$GPGSA,A,3,2,6,12,17,19,24,25,28,32,,,,,,,,,,,,1.124,0.631,0.930*39
$GLGSA,A,3,67,68,75,76,77,85,,,,,,,,,,,,,,,1.124,0.631,0.930*27
$BDGSA,A,3,205,208,210,211,212,213,,,,,,,,,,,,,,,1.124,0.631,0.930*26
$QZGSA,A,3,,,,,,,,,,,,,,,,,,,,,1.124,0.631,0.930*26
$GPGSV,7,1,24,2,17,159,33,6,31,130,36,12,43,275,38,15,5,213,26*49
$GPGSV,7,2,24,17,42,57,23,19,64,75,34,24,67,246,36,25,10,275,20*70
$GPGSV,7,3,24,28,13,88,25,32,14,325,20*46
$GLGSV,7,4,24,67,16,291,28,68,16,342,19,75,36,115,38,76,81,25,34*53
$GLGSV,7,5,24,77,30,307,17,85,47,45,32,86,58,158,37*65
$BDGSV,7,6,24,202,17,129,19,205,27,158,28,208,43,80,21,210,25,95,18*68
$BDGSV,7,7,24,211,52,178,36,212,55,70,30,213,40,114,35*53
$GPRMC,103754.00,A,5242.3796,N,04126.6562,E,2.397,69.311,050420,,E,A*23
$GPGGA,103755.00,5242.3801,N,04126.6568,E,1,21,0.631,130.941,M,,M,0,*49
$GNGSA,A,3,2,6,12,17,19,24,25,28,32,205,208,210,211,212,213,67,68,75,76,77,1.124,0.631,0.930*26
$GPGSA,A,3,2,6,12,17,19,24,25,28,32,,,,,,,,,,,,1.124,0.631,0.930*39
$GLGSA,A,3,67,68,75,76,77,85,,,,,,,,,,,,,,,1.124,0.631,0.930*27
$BDGSA,A,3,205,208,210,211,212,213,,,,,,,,,,,,,,,1.124,0.631,0.930*26
$QZGSA,A,3,,,,,,,,,,,,,,,,,,,,,1.124,0.631,0.930*26
$GPGSV,7,1,24,2,17,159,38,6,31,130,37,12,43,275,37,15,5,213,26*4C
$GPGSV,7,2,24,17,42,57,25,19,64,75,35,24,67,246,34,25,10,275,23*76
$GPGSV,7,3,24,28,13,88,27,32,14,325,21*45
$GLGSV,7,4,24,67,16,291,26,68,16,342,24,75,36,115,34,76,81,25,33*58
$GLGSV,7,5,24,77,30,308,14,85,47,45,27,86,58,158,39*63
$BDGSV,7,6,24,202,17,129,19,205,27,158,31,208,43,80,19,210,25,95,18*6B
$BDGSV,7,7,24,211,52,178,36,212,55,70,24,213,40,114,33*50
$GPRMC,103755.00,A,5242.3801,N,04126.6568,E,2.339,57.344,050420,,E,A*20
$GPGGA,103756.00,5242.3805,N,04126.6573,E,1,21,0.631,131.625,M,,M,0,*48
$GNGSA,A,3,2,6,12,17,19,24,25,28,32,205,208,210,211,212,213,67,68,75,76,77,1.124,0.631,0.931*27
$GPGSA,A,3,2,6,12,17,19,24,25,28,32,,,,,,,,,,,,1.124,0.631,0.931*38
